[{"latitude": 48.8645278209514, "longitude": 2.416170724425901, "codezip": "93170", "number": 31705, "city": "BAGNOLET", "name": "CHAMPEAUX (BAGNOLET)", "address": "RUE DES CHAMPEAUX (PRES DE LA GARE ROUTIERE)"}, {"latitude": 48.87242006305313, "longitude": 2.348395236282807, "codezip": "75010", "number": 10042, "city": "PARIS", "name": "POISSONNI\u00c3\u02c6RE - ENGHIEN", "address": "52 RUE D'ENGHIEN / ANGLE RUE DU FAUBOURG POISSONIERE"}, {"latitude": 48.882148945631904, "longitude": 2.319860054774211, "codezip": "75008", "number": 8020, "city": "PARIS", "name": "METRO ROME", "address": "74 BOULEVARD DES BATIGNOLLES"}, {"latitude": 48.8682170167744, "longitude": 2.330493511399174, "codezip": "75001", "number": 1022, "city": "PARIS", "name": "RUE DE LA PAIX", "address": "37 RUE CASANOVA"}, {"latitude": 48.893268664697416, "longitude": 2.412715733388685, "codezip": "93500", "number": 35014, "city": "PANTIN", "name": "DE GAULLE (PANTIN)", "address": "139 AVENUE JEAN LOLIVE / MAIL CHARLES DE GAULLE"}, {"latitude": 48.870393671603765, "longitude": 2.384222472712587, "codezip": "75020", "number": 20040, "city": "PARIS", "name": "PARC DE BELLEVILLE", "address": "57 & 36 RUE JULIEN LACROIX"}, {"latitude": 48.884478, "longitude": 2.24772065, "codezip": "92800", "number": 28002, "city": "PUTEAUX", "name": "SOLJENITSYNE (PUTEAUX)", "address": "BOULEVARD ALEXANDRE SOLJENITSYNE"}, {"latitude": 48.834658862792736, "longitude": 2.295789480315903, "codezip": "75015", "number": 15111, "city": "PARIS", "name": "SERRES", "address": "48 RUE OLIVIER DE SERRES"}, {"latitude": 48.839041145908176, "longitude": 2.437655339082955, "codezip": "75012", "number": 12124, "city": "PARIS", "name": "PYRAMIDE ARTILLERIE", "address": "ROUTE DE L'ARTILLERIE"}, {"latitude": 48.877872278317966, "longitude": 2.337446804203667, "codezip": "75009", "number": 9021, "city": "PARIS", "name": "SAINT GEORGES", "address": "56 RUE SAINT GEORGES"}, {"latitude": 48.85971010443503, "longitude": 2.325809024625026, "codezip": "75007", "number": 7007, "city": "PARIS", "name": "MUS\u00c3\u2030E D'ORSAY", "address": "62 RUE DE LILLE"}, {"latitude": 48.85550135398888, "longitude": 2.405168520639166, "codezip": "75020", "number": 20011, "city": "PARIS", "name": "PYR\u00c3\u2030N\u00c3\u2030ES-DAGORNO", "address": "103 RUE DES PYRENNEES"}, {"latitude": 48.844730256132095, "longitude": 2.341923944866407, "codezip": "75005", "number": 5005, "city": "PARIS", "name": "SAINT JACQUES GAY LUSSAC", "address": "27 RUE GAY LUSSAC"}, {"latitude": 48.910143671003794, "longitude": 2.385052018244114, "codezip": "93300", "number": 33006, "city": "AUBERVILLIERS", "name": "KARMAN (AUBERVILLIERS)", "address": "FACE 143 RUE ANDRE KARMAN"}, {"latitude": 48.86008832610481, "longitude": 2.350148335920203, "codezip": "75004", "number": 4020, "city": "PARIS", "name": "BEAUBOURG PLACE MICHELET", "address": "FACE 27 RUE QUINCAMPOIX"}, {"latitude": 48.8666176586814, "longitude": 2.38301344041578, "codezip": "75011", "number": 11029, "city": "PARIS", "name": "MENILMONTANT OBERKAMPF", "address": "137 BOULEVARD MENILMONTANT"}, {"latitude": 48.854268334051035, "longitude": 2.319454010061415, "codezip": "75007", "number": 7012, "city": "PARIS", "name": "CITE VANEAU", "address": "7 CITE VANEAU"}, {"latitude": 48.886389634924626, "longitude": 2.393637514433606, "codezip": "75019", "number": 19019, "city": "PARIS", "name": "PETIT HONNEGER", "address": "124 RUE PETIT"}, {"latitude": 48.83512886504287, "longitude": 2.34157863455693, "codezip": "75014", "number": 14113, "city": "PARIS", "name": "ARAGO 2", "address": "36 RUE DE LA SANTE"}, {"latitude": 48.851396721123486, "longitude": 2.291889313228121, "codezip": "75015", "number": 15028, "city": "PARIS", "name": "DUPLEIX", "address": "54 BOULEVARD DE GRENELLE"}, {"latitude": 48.8842989293728, "longitude": 2.26099177209953, "codezip": "92200", "number": 22005, "city": "NEUILLY", "name": "DE GAULLE 3 (NEUILLY)", "address": "195 AVENUE CHARLES DE GAULLE"}, {"latitude": 48.8691543609174, "longitude": 2.40932246879487, "codezip": "75020", "number": 20027, "city": "PARIS", "name": "PORTE DE MENILMONTANT", "address": "1 rue Vidal de la Blache / Angle 78 boulevard Mortier"}, {"latitude": 48.882728090545086, "longitude": 2.336262639016585, "codezip": "75018", "number": 18042, "city": "PARIS", "name": "PIGALLE GERMAIN PILLON", "address": "FACE 36 BOULEVARD DE CLICHY"}, {"latitude": 48.850379753879935, "longitude": 2.38386933547444, "codezip": "75011", "number": 11008, "city": "PARIS", "name": "FAIDHERBE CHALIGNY", "address": "223 RUE DU FAUBOURG SAINT ANTOINE"}, {"latitude": 48.8755503947562, "longitude": 2.389038160847546, "codezip": "75019", "number": 19038, "city": "PARIS", "name": "JOURDAIN", "address": "9 RUE LASSUS"}, {"latitude": 48.824695995415006, "longitude": 2.363106073577468, "codezip": "75013", "number": 13037, "city": "PARIS", "name": "IVRY BAUDICOURT", "address": "76 AVENUE D'IVRY"}, {"latitude": 48.819941965677195, "longitude": 2.36507858638901, "codezip": "75013", "number": 13040, "city": "PARIS", "name": "PORTE DE CHOISY", "address": "111 BOULEVARD MASSENA"}, {"latitude": 48.85286124871689, "longitude": 2.268483570651513, "codezip": "75016", "number": 16027, "city": "PARIS", "name": "JASMIN", "address": "79 AV MOZART"}, {"latitude": 48.84319882807092, "longitude": 2.322257377279243, "codezip": "75015", "number": 15118, "city": "PARIS", "name": "PLACE BIENVENUE", "address": "11 RUE DE L'ARRIVEE"}, {"latitude": 48.84479928858768, "longitude": 2.329337755887181, "codezip": "75006", "number": 6006, "city": "PARIS", "name": "NOTRE DAME DES CHAMPS", "address": "41 RUE NOTRE DAME DES CHAMPS"}, {"latitude": 48.8571433920909, "longitude": 2.398472, "codezip": "75020", "number": 20015, "city": "PARIS", "name": "BAGNOLET-ORTEAUX", "address": "44 BIS RUE DE BAGNOLET"}, {"latitude": 48.882633484310816, "longitude": 2.344884406212207, "codezip": "75009", "number": 9005, "city": "PARIS", "name": "SQUARE D'ANVERS", "address": "95 RUE DE DUNKERQUE"}, {"latitude": 48.86970884795243, "longitude": 2.310714655374236, "codezip": "75008", "number": 8031, "city": "PARIS", "name": "ROND POINT DES CHAMPS ELYSEES", "address": "2 RUE JEAN MERMOZ"}, {"latitude": 48.846964359503055, "longitude": 2.399868277428793, "codezip": "75012", "number": 12015, "city": "PARIS", "name": "NATION PICPUS", "address": "FACE 67 BOULEVARD DE PICPUS"}, {"latitude": 48.82195530645611, "longitude": 2.326806869905884, "codezip": "75014", "number": 14120, "city": "PARIS", "name": "JOURDAN BARBOUX", "address": "7 RUE HENRI BARBOUX"}, {"latitude": 48.87983122511022, "longitude": 2.345396338986368, "codezip": "75009", "number": 9007, "city": "PARIS", "name": "CONDORCET", "address": "34 RUE CONDORCET"}, {"latitude": 48.881149033952994, "longitude": 2.336681004295117, "codezip": "75009", "number": 9019, "city": "PARIS", "name": "VICTOR MASSE", "address": "38 RUE VICTOR MASSE"}, {"latitude": 48.83411714783768, "longitude": 2.308850015466539, "codezip": "75015", "number": 15040, "city": "PARIS", "name": "MONCLAR", "address": "33 BIS RUE SAINT AMAND"}, {"latitude": 48.82122766331853, "longitude": 2.342104214557966, "codezip": "75014", "number": 14013, "city": "PARIS", "name": "LIART AMIRAL MOUCHEZ", "address": "1 RUE LIARD"}, {"latitude": 48.823963252286866, "longitude": 2.399998420132992, "codezip": "94220", "number": 42201, "city": "CHARENTON", "name": "NECKER (CHARENTON)", "address": "RUE NECKER/ RUE DU PORT AUX LIONS"}, {"latitude": 48.865745077094815, "longitude": 2.365312950780227, "codezip": "75011", "number": 11038, "city": "PARIS", "name": "TEMPLE REPUBLIQUE", "address": "44 BD DU TEMPLE"}, {"latitude": 48.891877957087424, "longitude": 2.335447427689794, "codezip": "75018", "number": 18019, "city": "PARIS", "name": "MONTCALM", "address": "2 RUE MONTCALM"}, {"latitude": 48.898773792804256, "longitude": 2.322478477864687, "codezip": "75017", "number": 17008, "city": "PARIS", "name": "PORCHE POUCHET", "address": "7 PLACE ARNAUD TZANCK"}, {"latitude": 48.86138, "longitude": 2.32442, "codezip": "75007", "number": 901, "city": "PARIS", "name": "PORT SOLF\u00c3\u2030RINO (STATION MOBILE)", "address": "QUAI ANATOLE FRANCE  - PONT SOLFERINO"}, {"latitude": 48.84629491826888, "longitude": 2.278413912593796, "codezip": "75015", "number": 15064, "city": "PARIS", "name": "JAVEL", "address": "DEV 5 AVENUE EMILE ZOLA"}, {"latitude": 48.835138050689515, "longitude": 2.385478486564838, "codezip": "75012", "number": 12031, "city": "PARIS", "name": "LAME", "address": "49 RUE GABRIEL LAME"}, {"latitude": 48.82603516605852, "longitude": 2.342176808004326, "codezip": "75013", "number": 13021, "city": "PARIS", "name": "BOUSSINGAULT - TOLBIAC", "address": "55 RUE BOUSSINGAULT"}, {"latitude": 48.90259224163092, "longitude": 2.330513564840273, "codezip": "93400", "number": 34002, "city": "SAINT", "name": "PERI (SAINT OUEN)", "address": "128 AVENUE GABRIEL PERI / AVENUE DU CAPITAINE GLAMER"}, {"latitude": 48.865021945810085, "longitude": 2.345068440144759, "codezip": "75002", "number": 2005, "city": "PARIS", "name": "MONTORGUEIL RUE MONTMARTRE VERSION 2", "address": "46 RUE DE MONTMARTRE"}, {"latitude": 48.8827499154713, "longitude": 2.27740638127753, "codezip": "92200", "number": 22012, "city": "NEUILLY", "name": "MICHELIS (NEUILLY)", "address": "32 RUE DE MADELEINE MICHELIS"}, {"latitude": 48.841916179825965, "longitude": 2.358912681317667, "codezip": "75005", "number": 5104, "city": "PARIS", "name": "BUFFON", "address": "47 RUE BUFFON"}, {"latitude": 48.857702134021, "longitude": 2.43736866129498, "codezip": "93100", "number": 31008, "city": "MONTREUIL", "name": "VINCENNES (MONTREUIL)", "address": "7 BIS RUE DE VINCENNES"}, {"latitude": 48.84214433157821, "longitude": 2.285862655943941, "codezip": "75015", "number": 15062, "city": "PARIS", "name": "BOUCICAUT", "address": "87 RUE DE LA CONVENTION"}, {"latitude": 48.85579663740384, "longitude": 2.357907882135172, "codezip": "75004", "number": 4012, "city": "PARIS", "name": "ECOUFFES RIVOLI", "address": "2 RUE TIRON"}, {"latitude": 48.86558419108518, "longitude": 2.356278447633629, "codezip": "75003", "number": 3011, "city": "PARIS", "name": "TURBIGO", "address": "55 RUE TURBIGO"}, {"latitude": 48.8569749400317, "longitude": 2.408842457406961, "codezip": "75020", "number": 20017, "city": "PARIS", "name": "RUE SAINT BLAISE", "address": "69 RUE SAINT BLAISE"}, {"latitude": 48.89405725132698, "longitude": 2.332199335980013, "codezip": "75018", "number": 18028, "city": "PARIS", "name": "VAUVENARGUES", "address": "195 RUE CHAMPIONNET"}, {"latitude": 48.83976, "longitude": 2.38241, "codezip": "75012", "number": 12024, "city": "PARIS", "name": "GARE DE BERCY", "address": "GARE DE BERCY  - ANGLE RUE CORBINEAU"}, {"latitude": 48.86651607982108, "longitude": 2.369322530407524, "codezip": "75011", "number": 11113, "city": "PARIS", "name": "REPUBLIQUE FERRY", "address": "FACE 140 BOULEVARD RICHARD LENOIR"}, {"latitude": 48.827600424128306, "longitude": 2.241835191324587, "codezip": "92100", "number": 21015, "city": "BOULOGNE-BILLANCOURT", "name": "NATIONALE (BOULOGNE-BILLANCOURT)", "address": "39 RUE NATIONALE"}, {"latitude": 48.8185, "longitude": 2.37427, "codezip": "94200", "number": 42015, "city": "IVRY", "name": "JEAN FERRAT (IVRY)", "address": "PLACE JEAN FERRAT"}, {"latitude": 48.850310432924466, "longitude": 2.345015835298588, "codezip": "75005", "number": 5002, "city": "PARIS", "name": "SAINT JACQUES", "address": "20 RUE SOMMERARD"}, {"latitude": 48.87277815648997, "longitude": 2.376348394645978, "codezip": "75010", "number": 10040, "city": "PARIS", "name": "BELLEVILLE", "address": "8 BOULEVARD DE LA VILETTE"}, {"latitude": 48.83484845292942, "longitude": 2.366826499627087, "codezip": "75013", "number": 13018, "city": "PARIS", "name": "AURIOL CHEVALERET", "address": "1 RUE BRUANT"}, {"latitude": 48.823316172177535, "longitude": 2.35433694417225, "codezip": "75013", "number": 13026, "city": "PARIS", "name": "PLACE HENOCQUE VERSION 2", "address": "21 RUE DU DR LERAY ET LANDOUZY"}, {"latitude": 48.876468339733144, "longitude": 2.392284629788502, "codezip": "75019", "number": 19028, "city": "PARIS", "name": "PLACE DES FETES", "address": "17 RUE DES FETES"}, {"latitude": 48.8707649818776, "longitude": 2.35872446227434, "codezip": "75010", "number": 10008, "city": "PARIS", "name": "CITE RIVERIN", "address": "12 RUE CITE RIVERIN / ANGLE RUE DU CHATEAU D'EAU"}, {"latitude": 48.853751073467855, "longitude": 2.339113722899687, "codezip": "75006", "number": 6015, "city": "PARIS", "name": "MAZET SAINT ANDRE DES ARTS", "address": "10 RUE ANDRE MAZET"}, {"latitude": 48.841486856300165, "longitude": 2.430793451133684, "codezip": "94300", "number": 43006, "city": "VINCENNES", "name": "MINIMES (VINCENNES)", "address": "30 AVENUE DES MINIMES"}, {"latitude": 48.83797034201205, "longitude": 2.287582307043615, "codezip": "75015", "number": 15054, "city": "PARIS", "name": "CHANDON", "address": "293 RUE LECOURBE"}, {"latitude": 48.862650300140295, "longitude": 2.367053490449912, "codezip": "75011", "number": 11043, "city": "PARIS", "name": "CIRQUE D HIVER", "address": "PLACE PASDELOUP"}, {"latitude": 48.84273504298964, "longitude": 2.352472437223356, "codezip": "75005", "number": 5024, "city": "PARIS", "name": "PLACE MONGE", "address": "4 RUE DOLOMIEU"}, {"latitude": 48.84307638694992, "longitude": 2.29514141310447, "codezip": "75015", "number": 15036, "city": "PARIS", "name": "LAMBERT", "address": "102 RUE DE LA CROIX NIVERT"}, {"latitude": 48.81444017962381, "longitude": 2.341070654172592, "codezip": "94250", "number": 42504, "city": "GENTILLY", "name": "MALON (GENTILLY)", "address": "FACE 59 RUE BENOIT MALON"}, {"latitude": 48.85024108719566, "longitude": 2.327551549210571, "codezip": "75006", "number": 6107, "city": "PARIS", "name": "CHERCHE MIDI", "address": "29 RUE DU CHERCHE MIDI"}, {"latitude": 48.88141110121936, "longitude": 2.29482820074442, "codezip": "75017", "number": 17029, "city": "PARIS", "name": "PLACE AIM\u00c3\u2030E MAILLART", "address": "29 RUE PIERRE DEMOURS"}, {"latitude": 48.828369893809565, "longitude": 2.384440354604646, "codezip": "75013", "number": 13050, "city": "PARIS", "name": "QUAI PANHARD ET LEVASSOR", "address": "23 QUAI PANHARD ET LEVASSOR"}, {"latitude": 48.879505265624786, "longitude": 2.337190639271711, "codezip": "75009", "number": 9020, "city": "PARIS", "name": "TOUDOUZE CLAUZEL", "address": "FACE 27 RUE CLAUZEL"}, {"latitude": 48.83425924993043, "longitude": 2.313391647113252, "codezip": "75014", "number": 14029, "city": "PARIS", "name": "GERGOVIE VERCINGETORIX", "address": "112 RUE VERCINGETORIX"}, {"latitude": 48.88072668576597, "longitude": 2.351464333201903, "codezip": "75010", "number": 10029, "city": "PARIS", "name": "PLACE DE ROUBAIX", "address": "39 RUE DE DUNKERQUE"}, {"latitude": 48.88291108953936, "longitude": 2.346319371627125, "codezip": "75009", "number": 9004, "city": "PARIS", "name": "ROCHECHOUART GERANDO", "address": "19 RUE GUERANDO"}, {"latitude": 48.874112916506824, "longitude": 2.362498528696257, "codezip": "75010", "number": 10015, "city": "PARIS", "name": "RECOLLETS", "address": "46 RUE LUCIE SAMPAIX"}, {"latitude": 48.84892295818577, "longitude": 2.341040508705961, "codezip": "75006", "number": 6029, "city": "PARIS", "name": "VAUGIRARD PRINCE", "address": "FACE 1 RUE DE VAUGIRARD"}, {"latitude": 48.8455150897939, "longitude": 2.3726498446286, "codezip": "75012", "number": 12151, "city": "PARIS", "name": "GARE DE LYON", "address": "GARE DE LYON"}, {"latitude": 48.842577100515385, "longitude": 2.397249990597384, "codezip": "75012", "number": 12019, "city": "PARIS", "name": "GARE DE REUILLY", "address": "58 RUE DE LA GARE DE REUILLY"}, {"latitude": 48.820226792619714, "longitude": 2.372209309645734, "codezip": "75013", "number": 13116, "city": "PARIS", "name": "PLACE DU DOCTEUR YERSIN", "address": "FACE 5 AVENUE DE LA PORTE D'IVRY"}, {"latitude": 48.87927519569598, "longitude": 2.378637021920256, "codezip": "75019", "number": 19114, "city": "PARIS", "name": "MANIN SECRETAN", "address": "31 RUE MANIN"}, {"latitude": 48.873760472140056, "longitude": 2.315876308346374, "codezip": "75008", "number": 8025, "city": "PARIS", "name": "MIROMESNIL", "address": "39 RUE DE MIROMESNIL"}, {"latitude": 48.83568044417256, "longitude": 2.328290822051698, "codezip": "75014", "number": 14033, "city": "PARIS", "name": "DAGUERRE GASSENDI", "address": "31 RUE FRODEVAUX"}, {"latitude": 48.87944136963256, "longitude": 2.278535717122779, "codezip": "92200", "number": 22011, "city": "NEUILLY", "name": "MONTROSIER (NEUILLY)", "address": "7 RUE MONTROSIER"}, {"latitude": 48.835545043575955, "longitude": 2.40745551592605, "codezip": "75012", "number": 12032, "city": "PARIS", "name": "PORTE DOREE", "address": "1 PLACE EDOUARD RENARD"}, {"latitude": 48.8609983661382, "longitude": 2.27312852713658, "codezip": "75016", "number": 16110, "city": "PARIS", "name": "OCTAVE FEUILLET", "address": "4-6 RUE OCTAVE FEUILLET"}, {"latitude": 48.84766571002937, "longitude": 2.273556264965371, "codezip": "75016", "number": 16030, "city": "PARIS", "name": "MIRABEAU", "address": "4 PLACE DE BARCELONE"}, {"latitude": 48.83217944426036, "longitude": 2.287122261982559, "codezip": "75015", "number": 15049, "city": "PARIS", "name": "PORTE DE VERSAILLES", "address": "2 AVENUE ERNEST RENAN"}, {"latitude": 48.83373383017729, "longitude": 2.271396472461431, "codezip": "75015", "number": 15042, "city": "PARIS", "name": "FARMAN", "address": "61 RUE HENRY FARMAN"}, {"latitude": 48.88270064422199, "longitude": 2.37469338894231, "codezip": "75019", "number": 19012, "city": "PARIS", "name": "LALLY TOLLENDAL", "address": "5 RUE LALLY TOLLENDAL"}, {"latitude": 48.82824349415854, "longitude": 2.250657739639016, "codezip": "92100", "number": 21018, "city": "BOULOGNE-BILLANCOURT", "name": "SEINE (BOULOGNE-BILLANCOURT)", "address": "FACE AU 13 RUE DE LA SEINE"}, {"latitude": 48.83922209776229, "longitude": 2.291540507948998, "codezip": "75015", "number": 15053, "city": "PARIS", "name": "LECOURBE", "address": "250 RUE LECOURBE"}, {"latitude": 48.893400392981874, "longitude": 2.336266523912805, "codezip": "75018", "number": 18027, "city": "PARIS", "name": "DAMREMONT ORDENER", "address": "102 RUE DAMREMONT"}, {"latitude": 48.850297010217595, "longitude": 2.330446820277252, "codezip": "75006", "number": 6103, "city": "PARIS", "name": "MEZIERES RENNES", "address": "16 RUE DE MEZIERES"}, {"latitude": 48.816929720561234, "longitude": 2.381460319184223, "codezip": "94200", "number": 42006, "city": "IVRY", "name": "BROSSOLETTE (IVRY)", "address": "23 RUE PIERRE BROSSOLETTE"}, {"latitude": 48.894151383293696, "longitude": 2.314678001115381, "codezip": "75017", "number": 17011, "city": "PARIS", "name": "PORTE DE CLICHY FRAGONARD", "address": "4 RUE FRAGONARD"}, {"latitude": 48.85293041059132, "longitude": 2.342657392891206, "codezip": "75006", "number": 6020, "city": "PARIS", "name": "SAINT MICHEL DANTON", "address": "2 RUE DANTON"}, {"latitude": 48.854176040414856, "longitude": 2.396093495321842, "codezip": "75011", "number": 11017, "city": "PARIS", "name": "ALEXANDRE DUMAS", "address": "FACE 77 BOULEVARD DE CHARONNE"}, {"latitude": 48.837549292197465, "longitude": 2.335983030466524, "codezip": "75014", "number": 14111, "city": "PARIS", "name": "DENFERT-ROCHEREAU CASSINI", "address": "18 RUE CASSINI"}, {"latitude": 48.86793796309799, "longitude": 2.377885515684799, "codezip": "75011", "number": 11032, "city": "PARIS", "name": "METALLOS", "address": "81 BIS RUE JP TIMBAUD"}, {"latitude": 48.8993483537726, "longitude": 2.29662648341284, "codezip": "92110", "number": 21113, "city": "CLICHY", "name": "PETIT (CLICHY)", "address": "2 RUE PETIT"}, {"latitude": 48.86343198963591, "longitude": 2.37120861796012, "codezip": "75011", "number": 11044, "city": "PARIS", "name": "RICHARD LENOIR VOLTAIRE NORD", "address": "FACE 104 BOULEVARD RICHARD LENOIR"}, {"latitude": 48.85804405694242, "longitude": 2.367832659296124, "codezip": "75003", "number": 3001, "city": "PARIS", "name": "CHEMIN VERT BEAUMARCHAIS", "address": "69 BOULEVARD BEAUMARCHAIS"}, {"latitude": 48.85352868594103, "longitude": 2.409615362775532, "codezip": "75020", "number": 20133, "city": "PARIS", "name": "RASSELINS", "address": "2 RUE DES RASSELINS"}, {"latitude": 48.822632842232245, "longitude": 2.377738433657617, "codezip": "75013", "number": 13047, "city": "PARIS", "name": "BOUTROUX VITRY", "address": "1 AVENUE BOUTROUX"}, {"latitude": 48.905269629379745, "longitude": 2.322171248688672, "codezip": "93400", "number": 34009, "city": "SAINT", "name": "MAAR (SAINT OUEN)", "address": "RUE DORA MAAR / GARE RER"}, {"latitude": 48.85384822621097, "longitude": 2.369701488217501, "codezip": "75011", "number": 11001, "city": "PARIS", "name": "BASTILLE RICHARD LENOIR", "address": "2 BOULEVARD RICHARD LENOIR"}, {"latitude": 48.86240121191442, "longitude": 2.359447031946381, "codezip": "75003", "number": 3007, "city": "PARIS", "name": "ARCHIVES PASTOURELLE", "address": "67 RUE DES ARCHIVES"}, {"latitude": 48.87660117136262, "longitude": 2.345785516803243, "codezip": "75009", "number": 9009, "city": "PARIS", "name": "SQUARE MONTHOLON", "address": "26 RUE MONTHOLON"}, {"latitude": 48.86314, "longitude": 2.31669, "codezip": "75007", "number": 905, "city": "PARIS", "name": "CONCORDE/BERGES DE SEINE (STATION MOBILE)", "address": "QUAI D'ORSAY  - CONCORDE"}, {"latitude": 48.841325259808, "longitude": 2.31829155159271, "codezip": "75015", "number": 15115, "city": "PARIS", "name": "VAUGIRARD", "address": "25-31 BOULEVARD DE VAUGIRARD"}, {"latitude": 48.84838576471672, "longitude": 2.350169939020645, "codezip": "75005", "number": 5018, "city": "PARIS", "name": "MUTUALITE", "address": "20 RUE MONGE"}, {"latitude": 48.89633193166097, "longitude": 2.409087652725976, "codezip": "93500", "number": 35006, "city": "PANTIN", "name": "DELIZY (PANTIN)", "address": "FACE AU 23 RUE DELIZY"}, {"latitude": 48.878113787876, "longitude": 2.32956021945824, "codezip": "75009", "number": 9036, "city": "PARIS", "name": "ATHENES CLICHY", "address": "4 RUE D'ATHENES"}, {"latitude": 48.855501357701705, "longitude": 2.368429069929045, "codezip": "75004", "number": 4107, "city": "PARIS", "name": "BEAUMARCHAIS", "address": "27 BOULEVARD BEAUMARCHAIS"}, {"latitude": 48.88310390458221, "longitude": 2.323834749088381, "codezip": "75017", "number": 17050, "city": "PARIS", "name": "BATIGNOLLES", "address": "1 RUE DES BATIGNOLLES"}, {"latitude": 48.8425479496716, "longitude": 2.344596649931604, "codezip": "75005", "number": 5013, "city": "PARIS", "name": "ULM ERASME", "address": "13 RUE ERASME"}, {"latitude": 48.87541242186098, "longitude": 2.4059603311549, "codezip": "75020", "number": 20110, "city": "PARIS", "name": "PORTE DES LILAS", "address": "FACE 241 AVENUE GAMBETTA"}, {"latitude": 48.83772792097816, "longitude": 2.344664043426302, "codezip": "75013", "number": 13001, "city": "PARIS", "name": "PORT ROYAL", "address": "51 BOULEVARD PORT ROYAL"}, {"latitude": 48.83772768745433, "longitude": 2.360460336476805, "codezip": "75013", "number": 13103, "city": "PARIS", "name": "SAINT MARCEL", "address": "89 BOULEVARD DE L'HOPITAL"}, {"latitude": 48.881161983577115, "longitude": 2.30951238050775, "codezip": "75017", "number": 17018, "city": "PARIS", "name": "MONCEAU", "address": "4 RUE DE THANN"}, {"latitude": 48.873929200033544, "longitude": 2.427933579778934, "codezip": "93170", "number": 31704, "city": "BAGNOLET", "name": "HORNET (BAGNOLET)", "address": "FACE AU 1 RUE JEANNE HORNET"}, {"latitude": 48.857203787697095, "longitude": 2.353976273618783, "codezip": "75004", "number": 4103, "city": "PARIS", "name": "HOTEL DE VILLE", "address": "1 RUE DES ARCHIVES"}, {"latitude": 48.82584693469992, "longitude": 2.248821391087721, "codezip": "92100", "number": 21013, "city": "BOULOGNE-BILLANCOURT", "name": "GRENIER (BOULOGNE-BILLANCOURT)", "address": "4 AVENUE PIERRE GRENIER"}, {"latitude": 48.85050701184191, "longitude": 2.393075558274471, "codezip": "75011", "number": 11012, "city": "PARIS", "name": "MONTREUIL VOLTAIRE", "address": "93 RUE DE MONTREUIL"}, {"latitude": 48.915156182813234, "longitude": 2.376424009514086, "codezip": "93300", "number": 33012, "city": "AUBERVILLIERS", "name": "LANDY (AUBERVILLIERS)", "address": "FACE 2 RUE DU LANDY"}, {"latitude": 48.91013709505388, "longitude": 2.399325633305226, "codezip": "93500", "number": 35001, "city": "PANTIN", "name": "JAURES 1 (PANTIN)", "address": "168 AVENUE JEAN JAURES"}, {"latitude": 48.821049923459526, "longitude": 2.29130063072414, "codezip": "92170", "number": 21703, "city": "VANVES", "name": "MARTINIE (VANVES)", "address": "5-7 AVENUE MARCEL MARTINIE"}, {"latitude": 48.866067150086806, "longitude": 2.345463652702569, "codezip": "75002", "number": 2101, "city": "PARIS", "name": "BACHAUMONT", "address": "14 RUE BACHAUMONT"}, {"latitude": 48.8794303755264, "longitude": 2.303467406687128, "codezip": "75017", "number": 17025, "city": "PARIS", "name": "COURCELLES", "address": "2 RUE DE CHAZELLES"}, {"latitude": 48.853261668611665, "longitude": 2.326319806384382, "codezip": "75007", "number": 7004, "city": "PARIS", "name": "RASPAIL VARENNE", "address": "FACE 28 BOULEVARD RASPAIL"}, {"latitude": 48.86629510600211, "longitude": 2.389350412433471, "codezip": "75020", "number": 20032, "city": "PARIS", "name": "AMANDIERS", "address": "55 RUE DES CENDRIERS"}, {"latitude": 48.87916177777549, "longitude": 2.34369843072095, "codezip": "75009", "number": 9008, "city": "PARIS", "name": "TOUR D'AUVERGNE", "address": "24 RUE D'AUVERGNE"}, {"latitude": 48.848257752729346, "longitude": 2.439892899386235, "codezip": "94300", "number": 43007, "city": "VINCENNES", "name": "VORGES (VINCENNES)", "address": "4 AVENUE VORGES"}, {"latitude": 48.84419240789483, "longitude": 2.371691677977748, "codezip": "75012", "number": 12006, "city": "PARIS", "name": "GARE DE LYON VAN GOGH", "address": "15 RUE VAN GOGH"}, {"latitude": 48.815388220397274, "longitude": 2.320886790760933, "codezip": "92120", "number": 21204, "city": "MONTROUGE", "name": "D'ORVES (MONTROUGE)", "address": "FACE 44 RUE D'ESTIENNES D'ORVES / PISCINE"}, {"latitude": 48.82476710259696, "longitude": 2.335999677300567, "codezip": "75014", "number": 14016, "city": "PARIS", "name": "REILLE MONTSOURIS", "address": "61 AVENUE RENE COTY"}, {"latitude": 48.85281419134583, "longitude": 2.419307088753658, "codezip": "93100", "number": 31002, "city": "MONTREUIL", "name": "REPUBLIQUE (MONTREUIL)", "address": "38 RUE DE LA REPUBLIQUE"}, {"latitude": 48.83863387153602, "longitude": 2.278274193061826, "codezip": "75015", "number": 15070, "city": "PARIS", "name": "BLANC", "address": "88 RUE BALARD"}, {"latitude": 48.883769733273496, "longitude": 2.29858466343129, "codezip": "75017", "number": 17047, "city": "PARIS", "name": "COURCELLES - DEMOURES", "address": "172 RUE DE COURCELLES"}, {"latitude": 48.890747210171405, "longitude": 2.330820396477741, "codezip": "75018", "number": 18018, "city": "PARIS", "name": "CARPEAUX", "address": "13 RUE CARPEAUX"}, {"latitude": 48.85940271964358, "longitude": 2.35592748653501, "codezip": "75004", "number": 4014, "city": "PARIS", "name": "ARCHIVES BLANCS MANTEAUX", "address": "29 RUE DES BLANCS MANTEAUX"}, {"latitude": 48.85276674352813, "longitude": 2.297876431467921, "codezip": "75015", "number": 15105, "city": "PARIS", "name": "SUFFREN F\u00c3\u2030D\u00c3\u2030RATION", "address": "84 RUE DE LA FEDERATION"}, {"latitude": 48.87182588992616, "longitude": 2.372203224856393, "codezip": "75010", "number": 10024, "city": "PARIS", "name": "BUISSON SAINT LOUIS", "address": "2 RUE DU BUISSON SAINT LOUIS"}, {"latitude": 48.905745467654526, "longitude": 2.364997877155126, "codezip": "93200", "number": 32008, "city": "SAINT", "name": "EMGP NORD (SAINT DENIS)", "address": "EMGP PARKING ENTREE NORD"}, {"latitude": 48.87614039826388, "longitude": 2.301303138307601, "codezip": "75008", "number": 8054, "city": "PARIS", "name": "HOCHE ALBRECHT", "address": "10 AVENUE BERTHIER ALBRECHT"}, {"latitude": 48.86137389094257, "longitude": 2.320131276903925, "codezip": "75007", "number": 7009, "city": "PARIS", "name": "ASSEMBLEE NATIONALE", "address": "FACE 119 RUE DE LILLE"}, {"latitude": 48.86397965515107, "longitude": 2.335599603893845, "codezip": "75001", "number": 1015, "city": "PARIS", "name": "PLACE ANDRE MALRAUX", "address": "2 PLACE ANDRE MALRAUX"}, {"latitude": 48.88790134553051, "longitude": 2.324400445437174, "codezip": "75017", "number": 17002, "city": "PARIS", "name": "LA FOURCHE RUE DE LA CONDAMINE", "address": "4 RUE DE LA CONDAMINE"}, {"latitude": 48.89373427753593, "longitude": 2.347517966604574, "codezip": "75018", "number": 18030, "city": "PARIS", "name": "SIMPLON", "address": "1 RUE JOSEPH DIJON"}, {"latitude": 48.88217309420464, "longitude": 2.42327263606036, "codezip": "93260", "number": 32605, "city": "LES", "name": "HORTENSIAS (LES LILAS)", "address": "1 ALLEE DES HORTENSIAS"}, {"latitude": 48.82783803264948, "longitude": 2.370530563855483, "codezip": "75013", "number": 13045, "city": "PARIS", "name": "TOLBIAC ALBERT", "address": "FACE 1 RUE JEAN COLLY"}, {"latitude": 48.874810390028195, "longitude": 2.308314064189137, "codezip": "75008", "number": 8034, "city": "PARIS", "name": "HAUSSMANN COURCELLES", "address": "49 RUE DE BERRI"}, {"latitude": 48.869969733968915, "longitude": 2.3360394555421, "codezip": "75002", "number": 2012, "city": "PARIS", "name": "QUATRE SEPTEMBRE", "address": "10 RUE DE CHOISEUL"}, {"latitude": 48.8401089566606, "longitude": 2.337296889737942, "codezip": "75005", "number": 5029, "city": "PARIS", "name": "PORT ROYAL", "address": "FACE 41 AVENUE GEORGES BERNANOS"}, {"latitude": 48.853246898211985, "longitude": 2.405871044529538, "codezip": "75020", "number": 20008, "city": "PARIS", "name": "MARAICHERS", "address": "73 RUE DES PYRENEES"}, {"latitude": 48.87815529789739, "longitude": 2.288518047864942, "codezip": "75017", "number": 17039, "city": "PARIS", "name": "PLACE SAINT FERDINAND", "address": "26 RUE SAINT FERDINAND"}, {"latitude": 48.841249336041045, "longitude": 2.288386600849503, "codezip": "75015", "number": 15069, "city": "PARIS", "name": "BOUCICAUT FAURE", "address": "41 AVENUE FELIX FAURE"}, {"latitude": 48.83712603861059, "longitude": 2.351433329767636, "codezip": "75005", "number": 5027, "city": "PARIS", "name": "GOBELINS", "address": "22 AVENUE DES GOBELINS"}, {"latitude": 48.84463462629767, "longitude": 2.405099826323643, "codezip": "75012", "number": 12017, "city": "PARIS", "name": "ST MANDE NETTER", "address": "82 AVENUE SAINT MANDE"}, {"latitude": 48.902691617981425, "longitude": 2.393255829334146, "codezip": "93500", "number": 35003, "city": "PANTIN", "name": "VAILLANT (PANTIN)", "address": "ANGLE RUE GENERAL GOSSERAND ET AVENUE EDOUARD VAILLANT"}, {"latitude": 48.85386896766491, "longitude": 2.402426162238911, "codezip": "75020", "number": 20116, "city": "PARIS", "name": "HAIES REUNION", "address": "53 RUE DES HAIES"}, {"latitude": 48.89284571116732, "longitude": 2.363429016279767, "codezip": "75018", "number": 18011, "city": "PARIS", "name": "HERBERT", "address": "85 RUE PAJOL"}, {"latitude": 48.83548071896613, "longitude": 2.348572461702221, "codezip": "75013", "number": 13005, "city": "PARIS", "name": "ARAGO CORDELIERE - VERSION 2", "address": "2 RUE DES CORDELIERES"}, {"latitude": 48.87285913900304, "longitude": 2.370071706985146, "codezip": "75010", "number": 10032, "city": "PARIS", "name": "DODU", "address": "N\u00c2\u00b0 12-14 RUE CLAUDE VELLEFAUX"}, {"latitude": 48.84041618840877, "longitude": 2.295464906515111, "codezip": "75015", "number": 15037, "city": "PARIS", "name": "GROULT", "address": "202 RUE LECOURBE"}, {"latitude": 48.90066034942664, "longitude": 2.308569535028556, "codezip": "92110", "number": 21106, "city": "CLICHY", "name": "MORICE 2 (CLICHY)", "address": "2-4 RUE MORICE"}, {"latitude": 48.87818887641853, "longitude": 2.299296003861458, "codezip": "75008", "number": 8055, "city": "PARIS", "name": "TERNES COURCELLES", "address": "87 BD COURCELLES"}, {"latitude": 48.85525336084426, "longitude": 2.347356447642631, "codezip": "75004", "number": 4002, "city": "PARIS", "name": "MARCHE AUX FLEURS", "address": "PLACE LOUIS LEPINE"}, {"latitude": 48.84804578628324, "longitude": 2.284380633700994, "codezip": "75015", "number": 15030, "city": "PARIS", "name": "LINOIS", "address": "66 RUE EMERIAU"}, {"latitude": 48.85631717803066, "longitude": 2.383072452374457, "codezip": "75011", "number": 11020, "city": "PARIS", "name": "CHARONNE", "address": "1 RUE DE BELFORT"}, {"latitude": 48.84071436444365, "longitude": 2.278018571567725, "codezip": "75015", "number": 15059, "city": "PARIS", "name": "CITROEN", "address": "RUE BALARD"}, {"latitude": 48.87040913507474, "longitude": 2.301123191744092, "codezip": "75008", "number": 8549, "city": "PARIS", "name": "PLACE DUNANT", "address": "39 AVENUE GEORGE V"}, {"latitude": 48.867565806130166, "longitude": 2.225998484960623, "codezip": "92150", "number": 21501, "city": "SURESNES", "name": "SELLIER (SURESNES)", "address": "RUE DE SAINT CLOUD / BOULEVARD HENRI SELLIER"}, {"latitude": 48.827525292006904, "longitude": 2.331729378994153, "codezip": "75014", "number": 14011, "city": "PARIS", "name": "ALESIA SARRETTE", "address": "6 RUE SARRETTE"}, {"latitude": 48.8696161948985, "longitude": 2.306620834902348, "codezip": "75008", "number": 8013, "city": "PARIS", "name": "MARIGNAN", "address": "24 RUE DE MARIGNAN"}, {"latitude": 48.84633805388875, "longitude": 2.420247340474637, "codezip": "94300", "number": 43001, "city": "VINCENNES", "name": "PARIS 1 (VINCENNES)", "address": "168 AVENUE DE PARIS"}, {"latitude": 48.815050006197445, "longitude": 2.459239414806482, "codezip": "94410", "number": 44101, "city": "SAINT", "name": "PLACE MONGOLFIER (SAINT MAURICE)", "address": "PLACE MONTGOLFIER"}, {"latitude": 48.86356704711952, "longitude": 2.347702021141098, "codezip": "75001", "number": 1007, "city": "PARIS", "name": "ETIENNE MARCEL", "address": "2 RUE DE TURBIGO"}, {"latitude": 48.86951797934417, "longitude": 2.302426218841562, "codezip": "75008", "number": 8105, "city": "PARIS", "name": "FRANCOIS 1ER LINCOLN", "address": "56 RUE FRANCOIS 1ER"}, {"latitude": 48.837555260014625, "longitude": 2.257972572706903, "codezip": "75016", "number": 16042, "city": "PARIS", "name": "PORTE DE SAINT CLOUD", "address": "120 BOULEVARD MURAT"}, {"latitude": 48.89045112096476, "longitude": 2.349057392968696, "codezip": "75018", "number": 18022, "city": "PARIS", "name": "BARBES MARCADET", "address": "57 RUE MARCADET"}, {"latitude": 48.90249245151852, "longitude": 2.297840007374352, "codezip": "92110", "number": 21101, "city": "CLICHY", "name": "VALITON (CLICHY)", "address": "4 RUE DE VALITON"}, {"latitude": 48.830723214583635, "longitude": 2.336146557204349, "codezip": "75014", "number": 14125, "city": "PARIS", "name": "DAREAU", "address": "34 RUE DAREAU"}, {"latitude": 48.823923168544646, "longitude": 2.316573329316086, "codezip": "75014", "number": 14115, "city": "PARIS", "name": "CIT\u00c3\u2030 UNIVERSITAIRE", "address": "AVENUE MAURICE D'OCAGNE"}, {"latitude": 48.88896161855884, "longitude": 2.322528975094376, "codezip": "75017", "number": 17004, "city": "PARIS", "name": "LEGENDRE AVENUE DE CLICHY", "address": "130 RUE LEGENDRE"}, {"latitude": 48.89591411750011, "longitude": 2.322727367054828, "codezip": "75017", "number": 17007, "city": "PARIS", "name": "NAVIER", "address": "FACE 57 RUE NAVIER"}, {"latitude": 48.891834448210986, "longitude": 2.300144659954865, "codezip": "75017", "number": 17116, "city": "PARIS", "name": "REIMS", "address": "6 BOULEVARD DE REIMS"}, {"latitude": 48.874179024030234, "longitude": 2.327778690118609, "codezip": "75009", "number": 9104, "city": "PARIS", "name": "CAUMARTIN PROVENCE", "address": "115 rue de provence"}, {"latitude": 48.875353174464706, "longitude": 2.322884365751902, "codezip": "75008", "number": 8008, "city": "PARIS", "name": "ROME SAINT LAZARE", "address": "1 RUE JOSEPH SANSBOEUF"}, {"latitude": 48.856954148055344, "longitude": 2.362897420229539, "codezip": "75003", "number": 3013, "city": "PARIS", "name": "RUE DE SEVIGNE", "address": "36 RUE DE SEVIGNE"}, {"latitude": 48.82860289084512, "longitude": 2.353034582951421, "codezip": "75013", "number": 13023, "city": "PARIS", "name": "BOBILLOT VERLAINE", "address": "30 RUE BOBILLOT"}, {"latitude": 48.84779066448261, "longitude": 2.444690887827985, "codezip": "94300", "number": 43008, "city": "VINCENNES", "name": "FONTENAY (VINCENNES)", "address": "12 RUE DE FONTENAY"}, {"latitude": 48.85712940035504, "longitude": 2.404425625176959, "codezip": "75020", "number": 20016, "city": "PARIS", "name": "PYRENEES VITRUVE", "address": "114 BIS RUE DES PYRENEES"}, {"latitude": 48.88416326647457, "longitude": 2.341879802310627, "codezip": "75018", "number": 18005, "city": "PARIS", "name": "TARDIEU", "address": "8 RUE TARDIEU"}, {"latitude": 48.825325870060475, "longitude": 2.310670653467625, "codezip": "75014", "number": 14106, "city": "PARIS", "name": "STADE DIDOT", "address": "FACE 58 AVENUE MARC SANGNIER"}, {"latitude": 48.873338225236466, "longitude": 2.413239879550039, "codezip": "75020", "number": 20120, "city": "PARIS", "name": "NOISY LE SEC", "address": "1 RUE EVARISTE GALOIS"}, {"latitude": 48.8335736182304, "longitude": 2.28548042091786, "codezip": "75015", "number": 15107, "city": "PARIS", "name": " PALAIS DES SPORTS", "address": "42 BOULEVARD VICTOR"}, {"latitude": 48.843542735006295, "longitude": 2.306558615574665, "codezip": "75015", "number": 15013, "city": "PARIS", "name": "LECOURBE VOLONTAIRE", "address": "DEV 1 RUE DES VOLONTAIRES"}, {"latitude": 48.883620233843736, "longitude": 2.403240318366616, "codezip": "93310", "number": 33104, "city": "LE", "name": "JOINEAU (PRE SAINT GERVAIS)", "address": "RUE ANDRE JOINEAU / PLACE ANATOLE FRANCE"}, {"latitude": 48.852725972189546, "longitude": 2.360878343431665, "codezip": "75004", "number": 4009, "city": "PARIS", "name": "VILLAGE SAINT PAUL", "address": "6 RUE SAINT PAUL"}, {"latitude": 48.84795020779427, "longitude": 2.260659826137633, "codezip": "75016", "number": 16034, "city": "PARIS", "name": "PORTE D'AUTEUIL", "address": "76 RUE D'AUTEUIL"}, {"latitude": 48.87685932729332, "longitude": 2.332762380011633, "codezip": "75009", "number": 9029, "city": "PARIS", "name": "TRINITE", "address": "62 RUE SAINT LAZARE"}, {"latitude": 48.827564379878744, "longitude": 2.34906350669476, "codezip": "75013", "number": 13022, "city": "PARIS", "name": "BUTTE AUX CAILLES", "address": "27 ET 36 RUE DE LA BUTTE AUX CAILLES"}, {"latitude": 48.85862166935013, "longitude": 2.409942553877677, "codezip": "75020", "number": 20018, "city": "PARIS", "name": "HARPIGNIES", "address": "2 RUE HARPIGNIES"}, {"latitude": 48.87572, "longitude": 2.32668, "codezip": "75008", "number": 8002, "city": "PARIS", "name": "GARE SAINT LAZARE - COUR DU HAVRE", "address": "Cour du Havre  - Face au 2, rue d'Amsterdam"}, {"latitude": 48.868165940558264, "longitude": 2.301274609316824, "codezip": "75008", "number": 8047, "city": "PARIS", "name": "GEORGE V", "address": "28 AVENUE GEORGE V"}, {"latitude": 48.907885757266726, "longitude": 2.378838474064149, "codezip": "93300", "number": 33009, "city": "AUBERVILLIERS", "name": "FELIX (AUBERVILLIERS)", "address": "120 BOULEVARD FELIX FAURE"}, {"latitude": 48.8646494198968, "longitude": 2.369261438255258, "codezip": "75011", "number": 11042, "city": "PARIS", "name": "OBERKAMPF", "address": "1 RUE DU GRAND PRIEURE"}, {"latitude": 48.82509932921558, "longitude": 2.292500331456548, "codezip": "92170", "number": 21707, "city": "Vanves", "name": "PASTEUR (VANVES)", "address": "9 AVENUE PASTEUR ANGLE CARREFOUR ALBERT LEGRIS"}, {"latitude": 48.83317977055646, "longitude": 2.299282641599619, "codezip": "75015", "number": 15047, "city": "PARIS", "name": "DANTZIG", "address": "FACE AU 37 RUE MORILLONS"}, {"latitude": 48.824952872870355, "longitude": 2.388580678853776, "codezip": "75013", "number": 13121, "city": "PARIS", "name": "IVRY BRUNESEAU", "address": "RUE BRUNESEAU"}, {"latitude": 48.84776985682885, "longitude": 2.316183886729462, "codezip": "75007", "number": 7001, "city": "PARIS", "name": "DUROC", "address": "63 BOULEVARD DES INVALIDES"}, {"latitude": 48.836058393856256, "longitude": 2.301865968384287, "codezip": "75015", "number": 15039, "city": "PARIS", "name": "CHARLES VALLIN", "address": "133 RUE DE L'ABBE GROULT"}, {"latitude": 48.87494475810723, "longitude": 2.29743857720451, "codezip": "75008", "number": 8057, "city": "PARIS", "name": "HOCHE", "address": "62 AVENUE HOCHE"}, {"latitude": 48.85761567856468, "longitude": 2.335831353037739, "codezip": "75006", "number": 6001, "city": "PARIS", "name": "INSTITUT", "address": "5 QUAI MALAQAIS"}, {"latitude": 48.866331347902545, "longitude": 2.371097448471508, "codezip": "75011", "number": 11109, "city": "PARIS", "name": "REPUBLIQUE PIERRE LEVEE", "address": "1 RUE DE LA PIERRE LEVEE"}, {"latitude": 48.83088717455243, "longitude": 2.318882101207347, "codezip": "75014", "number": 14027, "city": "PARIS", "name": "ALESIA GERGOVIE", "address": "FACE 83 RUE DE GERGOVIE"}, {"latitude": 48.871361039775586, "longitude": 2.288866396041159, "codezip": "75016", "number": 16104, "city": "PARIS", "name": "PAUL VAL\u00c3\u2030RY", "address": "26-32 RUE PAUL VALERY"}, {"latitude": 48.854963800335234, "longitude": 2.387217085372007, "codezip": "75011", "number": 11111, "city": "PARIS", "name": "CHARONNE FROT", "address": "31 RUE LEON FROT"}, {"latitude": 48.88949630486821, "longitude": 2.333393658804396, "codezip": "75018", "number": 18111, "city": "PARIS", "name": "FELIZ ZIEM", "address": "2 RUE FELIX ZIEM"}, {"latitude": 48.82234096593411, "longitude": 2.327861653302471, "codezip": "75014", "number": 14108, "city": "PARIS", "name": "JOURDAN LE BRIX ET MESNIN", "address": "RUE LE BRIX ET MESNIN"}, {"latitude": 48.87545720024482, "longitude": 2.315465494584916, "codezip": "75008", "number": 8026, "city": "PARIS", "name": "MESSINE", "address": "2 AVENUE MESSINE"}, {"latitude": 48.879223370628495, "longitude": 2.349147493536092, "codezip": "75009", "number": 9002, "city": "PARIS", "name": "MAUBEUGE CONDORCET", "address": "19 RUE D'ABBEVILLE"}, {"latitude": 48.85560316202584, "longitude": 2.390546390619984, "codezip": "75011", "number": 11019, "city": "PARIS", "name": "CHARONNE PHILIPPE AUGUSTE", "address": "156 RUE DE CHARONNE"}, {"latitude": 48.87712417766737, "longitude": 2.374276509236151, "codezip": "75019", "number": 19118, "city": "PARIS", "name": "BOLIVAR BURNOUF", "address": "82 AVENUE SIMON BOLIVAR"}, {"latitude": 48.84629503172156, "longitude": 2.352222921607491, "codezip": "75005", "number": 5022, "city": "PARIS", "name": "CARDINAL LEMOINE", "address": "40 RUE BOU LANGERS"}, {"latitude": 48.87208360886937, "longitude": 2.35766368561921, "codezip": "75010", "number": 10009, "city": "PARIS", "name": "HITTORFF", "address": "FACE 14 RUE HITTORFF"}, {"latitude": 48.839988788911874, "longitude": 2.400525668552064, "codezip": "75012", "number": 12038, "city": "PARIS", "name": "BEL AIR", "address": "FACE 12 BOULEVARD PICPUS"}, {"latitude": 48.834390797006805, "longitude": 2.329303946545288, "codezip": "75014", "number": 14036, "city": "PARIS", "name": "BOULARD DAGUERRE", "address": "14 RUE BOULARD"}, {"latitude": 48.89032998912038, "longitude": 2.319730559929781, "codezip": "75017", "number": 17005, "city": "PARIS", "name": "BROCHANT", "address": "43 RUE BROCHANT"}, {"latitude": 48.863025315388256, "longitude": 2.268806550199479, "codezip": "75016", "number": 16019, "city": "PARIS", "name": "HENRI MARTIN", "address": "FACE 98 AV. HENRI MARTIN"}, {"latitude": 48.892656891991216, "longitude": 2.359435454901881, "codezip": "75018", "number": 18104, "city": "PARIS", "name": "CHAPELLE", "address": "2 IMPASSE DE LA CHAPELLE"}, {"latitude": 48.82987537265954, "longitude": 2.35424653463425, "codezip": "75013", "number": 13106, "city": "PARIS", "name": "BOBILLOT MERY", "address": "17 RUE BOBILLOT"}, {"latitude": 48.84064929857331, "longitude": 2.227978774754288, "codezip": "92100", "number": 21007, "city": "BOULOGNE", "name": "RHIN DANUBE (BOULOGNE BILLANCOURT)", "address": "15 ROND POINT RHIN DANUBE"}, {"latitude": 48.87346279870817, "longitude": 2.364035059250436, "codezip": "75010", "number": 10111, "city": "PARIS", "name": "BOURSE DU TRAVAIL", "address": "100 QUAI DE JEMMAPES"}, {"latitude": 48.881447321103366, "longitude": 2.3734047671616, "codezip": "75019", "number": 19022, "city": "PARIS", "name": "BOLIVAR", "address": "53 RUE DE MEAUX"}, {"latitude": 48.89271966633131, "longitude": 2.412529571472175, "codezip": "93500", "number": 35008, "city": "PANTIN", "name": "LOLIVE 2 (PANTIN)", "address": "132 RUE JEAN LOLIVE"}, {"latitude": 48.886233417429835, "longitude": 2.368856390499634, "codezip": "75019", "number": 19109, "city": "PARIS", "name": "PLACE DU MAROC", "address": "27 RUE DE TANGER"}, {"latitude": 48.868851708234864, "longitude": 2.298514048803577, "codezip": "75008", "number": 8048, "city": "PARIS", "name": "MARCEAU", "address": "45 AVENUE MARCEAU"}, {"latitude": 48.875329723153264, "longitude": 2.340772662331439, "codezip": "75009", "number": 9014, "city": "PARIS", "name": "FAUBOURG MONTMARTRE", "address": "55 RUE DU FAUBOURG MONTMARTRE"}, {"latitude": 48.87789001497427, "longitude": 2.344785602987212, "codezip": "75009", "number": 9108, "city": "PARIS", "name": "ROCHECHOUART MAUBEUGE", "address": "25 RUE DE ROCHECHOUART"}, {"latitude": 48.82998371071962, "longitude": 2.350403587821832, "codezip": "75013", "number": 13009, "city": "PARIS", "name": "BLANQUI CORVISART", "address": "46 BOULEVARD AUGUSTE BLANQUI"}, {"latitude": 48.89067812943125, "longitude": 2.376142468863619, "codezip": "75019", "number": 19006, "city": "PARIS", "name": "MATHIS", "address": "6 RUE MATHIS"}, {"latitude": 48.89263392143244, "longitude": 2.317313258110739, "codezip": "75017", "number": 17009, "city": "PARIS", "name": "BODIN AVENUE DE CLICHY", "address": "2 RUE PAUL BODIN"}, {"latitude": 48.84394917584249, "longitude": 2.37908134343237, "codezip": "75012", "number": 12106, "city": "PARIS", "name": "BARTHES TROYES", "address": "3 RUE ROLAND BARTHES"}, {"latitude": 48.8887900267753, "longitude": 2.378500156138491, "codezip": "75019", "number": 19125, "city": "PARIS", "name": "LEDIT DE NANTES", "address": "PLACE LEDIT DE NANTES"}, {"latitude": 48.8095823380351, "longitude": 2.36268350990116, "codezip": "94270", "number": 42703, "city": "LE", "name": "FONTAINEBLEAU (KREMLIN BICETRE)", "address": "93 AVENUE DE FONTAINEBLEAU"}, {"latitude": 48.87320440102894, "longitude": 2.323658830743138, "codezip": "75008", "number": 8016, "city": "PARIS", "name": "SQUARE LOUIS XVI", "address": "DEV 32 RUE PASQUIER"}, {"latitude": 48.851454182127426, "longitude": 2.296710300930856, "codezip": "75015", "number": 15025, "city": "PARIS", "name": "AMETTE", "address": "26 RUE DUPLEIX"}, {"latitude": 48.84367484543761, "longitude": 2.354615982683207, "codezip": "75005", "number": 5031, "city": "PARIS", "name": "LACEPEDE", "address": "2 RUE LACEPEDE"}, {"latitude": 48.84373446877937, "longitude": 2.333428381875887, "codezip": "75006", "number": 6008, "city": "PARIS", "name": "ASSAS LUXEMBOURG", "address": "90 RUE D'ASSAS"}, {"latitude": 48.866810653323, "longitude": 2.334388448251871, "codezip": "75001", "number": 1116, "city": "PARIS", "name": "OP\u00c3\u2030RA PYRAMIDES", "address": "4 RUE DE VENTADOUR"}, {"latitude": 48.84479039026177, "longitude": 2.290541560154527, "codezip": "75015", "number": 15033, "city": "PARIS", "name": "VIOLET", "address": "5 PLACE VIOLET"}, {"latitude": 48.88573329985865, "longitude": 2.397846415383189, "codezip": "75019", "number": 19035, "city": "PARIS", "name": "PORTE CHAUMONT", "address": "RUE SIGMUND FREUD / PORTE CHAUMONT"}, {"latitude": 48.894104140316266, "longitude": 2.372946088467279, "codezip": "75019", "number": 19001, "city": "PARIS", "name": "OURCQ CRIMEE", "address": "243 RUE DE CRIMEE"}, {"latitude": 48.845779219164555, "longitude": 2.42377059524055, "codezip": "94160", "number": 41603, "city": "SAINT", "name": "PASTEUR (SAINT MANDE)", "address": "AVENUE PASTEUR/AVENUE DE PARIS"}, {"latitude": 48.88219420395092, "longitude": 2.340651849622331, "codezip": "75018", "number": 18041, "city": "PARIS", "name": "MARTYRS 2", "address": "FACE 112 BOULEVARD DE ROCHECHOUART"}, {"latitude": 48.87013645868239, "longitude": 2.396690612876254, "codezip": "75020", "number": 20119, "city": "PARIS", "name": "SQUARE DE MENILMONTANT", "address": "138 RUE DE MENILMONTANT"}, {"latitude": 48.8473310531154, "longitude": 2.4103900081973, "codezip": "75020", "number": 20047, "city": "PARIS", "name": "COURS DE VINCENNES BD DAVOUT", "address": "107 COURS DE VINCENNES"}, {"latitude": 48.853844054333514, "longitude": 2.289705348222022, "codezip": "75015", "number": 15026, "city": "PARIS", "name": "BIR HAKEIM", "address": "FACE 6 BOULEVARD DE GRENELLE"}, {"latitude": 48.87078277953678, "longitude": 2.345905811394424, "codezip": "75002", "number": 2022, "city": "PARIS", "name": "BONNE NOUVELLE SAINT FIACRE", "address": "20 RUE SAINT FIACRE"}, {"latitude": 48.850285280635795, "longitude": 2.406296107816583, "codezip": "75020", "number": 20006, "city": "PARIS", "name": "PYR\u00c3\u2030N\u00c3\u2030ES - PLAINE", "address": "33 RUE DES PYRENEES"}, {"latitude": 48.838713363162405, "longitude": 2.252191060537607, "codezip": "75016", "number": 16044, "city": "PARIS", "name": "STADE FRANCAIS", "address": "24 AVENUE DE LA PORTE DE SAINT CLOUD"}, {"latitude": 48.87553842110213, "longitude": 2.293732100169925, "codezip": "75017", "number": 17033, "city": "PARIS", "name": "CARNOT", "address": "8 AVENUE CARNOT"}, {"latitude": 48.86941289116132, "longitude": 2.395039981220676, "codezip": "75020", "number": 20035, "city": "PARIS", "name": "PYRENEES", "address": "262 RUE DES PYRENEES"}, {"latitude": 48.88457006316311, "longitude": 2.360215572664323, "codezip": "75018", "number": 18040, "city": "PARIS", "name": "CHAPELLE MARX DORMOY", "address": "29 BOULEVARD DE LA CHAPELLE"}, {"latitude": 48.877356057652264, "longitude": 2.354511445637388, "codezip": "75010", "number": 10021, "city": "PARIS", "name": "MARCHE ST QUENTIN", "address": "4 RUE DES PETITS HOTELS"}, {"latitude": 48.872939767837096, "longitude": 2.35403448428308, "codezip": "75010", "number": 10006, "city": "PARIS", "name": "PETITES ECURIES", "address": "5 RUE DES PETITES ECURIES"}, {"latitude": 48.892895283967825, "longitude": 2.340119632436559, "codezip": "75018", "number": 18026, "city": "PARIS", "name": "RUISSEAU ORDENER", "address": "37 RUE DU RUISSEAU"}, {"latitude": 48.860116109626574, "longitude": 2.280840481911055, "codezip": "75016", "number": 16016, "city": "PARIS", "name": "PAUL DOUMER / LA TOUR", "address": "53 AVENUE PAUL DOUMER"}, {"latitude": 48.89654905978759, "longitude": 2.384649644021933, "codezip": "75019", "number": 19009, "city": "PARIS", "name": "CITE DES SCIENCES", "address": "28BIS AVENUE CORENTIN CARIOU"}, {"latitude": 48.875070404063074, "longitude": 2.382591714979966, "codezip": "75019", "number": 19101, "city": "PARIS", "name": "SIMON BOLIVAR", "address": "36 AVENUE SIMON BOLIVAR"}, {"latitude": 48.89792240854517, "longitude": 2.32851451022192, "codezip": "75017", "number": 17044, "city": "PARIS", "name": "PORTE DE SAINT OUEN", "address": "1 AVENUE DE LA PORTE DE SAINT OUEN"}, {"latitude": 48.847653880984645, "longitude": 2.390238633141864, "codezip": "75012", "number": 12107, "city": "PARIS", "name": "DIDEROT BOURDAN", "address": "146 BOULEVARD DIDEROT"}, {"latitude": 48.85167822904787, "longitude": 2.314633840627834, "codezip": "75007", "number": 7014, "city": "PARIS", "name": "SAINT FRANCOIS XAVIER", "address": "35 BOULEVARD DES INVALIDES"}, {"latitude": 48.84115621648301, "longitude": 2.324448789519074, "codezip": "75014", "number": 14001, "city": "PARIS", "name": "EDGAR QUINET", "address": "13 BOULEVARD EDGAR QUINET"}, {"latitude": 48.861581157730946, "longitude": 2.35660934144383, "codezip": "75003", "number": 3009, "city": "PARIS", "name": "TEMPLE 113", "address": "76 RUE DU TEMPLE"}, {"latitude": 48.86707, "longitude": 2.36351, "codezip": "75003", "number": 3004, "city": "PARIS", "name": "REPUBLIQUE 23", "address": "19 PLACE DE LA REPUBLIQUE"}, {"latitude": 48.88365921093733, "longitude": 2.395719508193907, "codezip": "75019", "number": 19105, "city": "PARIS", "name": "PORTE BRUNET", "address": "FACE 1 AVENUE AMBROISE RENDU"}, {"latitude": 48.88727464264267, "longitude": 2.332648363845394, "codezip": "75018", "number": 18001, "city": "PARIS", "name": "DAMREMONT CAULAINCOURT", "address": "6 RUE DAMREMONT"}, {"latitude": 48.863411107404715, "longitude": 2.387133957573714, "codezip": "75020", "number": 20030, "city": "PARIS", "name": "PERE LACHAISE", "address": "54 BOULEVARD MENILMONTANT"}, {"latitude": 48.867623078056845, "longitude": 2.333268593101536, "codezip": "75002", "number": 2020, "city": "PARIS", "name": "OPERA CASANOVA", "address": "02 RUE DANIEL CASANOVA"}, {"latitude": 48.833139, "longitude": 2.317377, "codezip": "75014", "number": 14104, "city": "PARIS", "name": "LOSSERAND BOYER-BARRET", "address": "4 RUE BOYER BARRET"}, {"latitude": 48.852255290042486, "longitude": 2.374027235613735, "codezip": "75011", "number": 11004, "city": "PARIS", "name": "CHARONNE SAINT ANTOINE", "address": "3 RUE DE CHARONNE"}, {"latitude": 48.857566889784465, "longitude": 2.280027395306772, "codezip": "75016", "number": 16022, "city": "PARIS", "name": "RUE JEAN BOLOGNE", "address": "16 RUE JEAN BOLOGNE"}, {"latitude": 48.90162, "longitude": 2.37267, "codezip": "75019", "number": 19106, "city": "PARIS", "name": "GARE EMGP", "address": "35, rue de la Gare"}, {"latitude": 48.831582643774894, "longitude": 2.356708420760657, "codezip": "75013", "number": 13010, "city": "PARIS", "name": "PLACE D ITALIE AURIOL", "address": "FACE 11 PLACE D'ITALIE"}, {"latitude": 48.88591312825616, "longitude": 2.293234151072418, "codezip": "75017", "number": 17107, "city": "PARIS", "name": "BERTHIER STUART MERRIL", "address": "182 BOULEVARD BERTHIER"}, {"latitude": 48.831121775069235, "longitude": 2.348108654777346, "codezip": "75013", "number": 13101, "city": "PARIS", "name": "CROULEBARBE RECULETTES", "address": "67-69 RUE DE CROULEBARBE"}, {"latitude": 48.81315667771776, "longitude": 2.332054794950423, "codezip": "94250", "number": 42503, "city": "GENTILLY", "name": "LENINE (GENTILLY)", "address": "FACE 71 AVENUE LENINE"}, {"latitude": 48.84057730290756, "longitude": 2.366124461859616, "codezip": "75013", "number": 13151, "city": "PARIS", "name": "GARE D'AUSTERLITZ", "address": "GARE D'AUSTERLITZ"}, {"latitude": 48.865346269362675, "longitude": 2.310193787964762, "codezip": "75008", "number": 8029, "city": "PARIS", "name": "PLACE DU CANADA", "address": "1 AVENUE FRANKLIN ROOSEVELT"}, {"latitude": 48.844425919545365, "longitude": 2.29404143328216, "codezip": "75015", "number": 15034, "city": "PARIS", "name": "COMMERCE", "address": "2 RUE LAKANAL"}, {"latitude": 48.86213223497159, "longitude": 2.364951386893752, "codezip": "75003", "number": 3003, "city": "PARIS", "name": "TURENNE BRETAGNE", "address": "4 RUE DES FILLES DU CALVAIRE"}, {"latitude": 48.825712903519616, "longitude": 2.375044300094851, "codezip": "75013", "number": 13046, "city": "PARIS", "name": "OUDINE PATAY", "address": "10 RUE EUGENE OUDINE"}, {"latitude": 48.86500081847653, "longitude": 2.403980836377493, "codezip": "75020", "number": 20023, "city": "PARIS", "name": "PELLEPORT BELGRAND", "address": "44 RUE PELLEPORT"}, {"latitude": 48.86299816676784, "longitude": 2.341555077827231, "codezip": "75001", "number": 1012, "city": "PARIS", "name": "BOURSE DU COMMERCE", "address": "FACE 29 RUE JEAN JACQUES ROUSSEAU"}, {"latitude": 48.818574415839485, "longitude": 2.353260183740912, "codezip": "75013", "number": 13111, "city": "PARIS", "name": "CIMETIERE DE GENTILLY", "address": "RUE DE LA POTERNE DES PEUPLIERS"}, {"latitude": 48.81420628475591, "longitude": 2.384207013557983, "codezip": "94200", "number": 42008, "city": "IVRY", "name": "CASANOVA (IVRY)", "address": "128 AVENUE DANIEL CASANOVA"}, {"latitude": 48.833654852830335, "longitude": 2.413463576486826, "codezip": "75012", "number": 12041, "city": "PARIS", "name": "BOIS DE VINCENNES", "address": "AVENUE DAUMESNIL"}, {"latitude": 48.900889626876015, "longitude": 2.324819807804481, "codezip": "93400", "number": 34001, "city": "SAINT", "name": "FRUCTIDOR (SAINT OUEN)", "address": "FACE 10 RUE FRUCTIDOR / FACE BAT 2 LE COLYSEE"}, {"latitude": 48.903676702256305, "longitude": 2.319176657580128, "codezip": "92110", "number": 21104, "city": "CLICHY", "name": "SANZILLON (CLICHY)", "address": "64 RUE DE MADAME DE SANZILLON"}, {"latitude": 48.852193095437535, "longitude": 2.3890216505832, "codezip": "75011", "number": 11009, "city": "PARIS", "name": "RUE DES BOULETS", "address": "45 RUE DES BOULETS"}, {"latitude": 48.8830298392804, "longitude": 2.38634884002286, "codezip": "75019", "number": 19031, "city": "PARIS", "name": "MANIN CRIMEE", "address": "8 RUE MANIN"}, {"latitude": 48.891962328964816, "longitude": 2.284204990113615, "codezip": "92300", "number": 23010, "city": "LEVALLOIS-PERRET", "name": "VOLTAIRE (LEVALLOIS)", "address": "47 RUE VOLTAIRE"}, {"latitude": 48.821159320800966, "longitude": 2.358701217878322, "codezip": "75013", "number": 13031, "city": "PARIS", "name": "ITALIE MAISON BLANCHE", "address": "121 AVENUE D'ITALIE"}, {"latitude": 48.88103214901626, "longitude": 2.340774412117837, "codezip": "75009", "number": 9017, "city": "PARIS", "name": "TRUDAINE MARTYRS", "address": "01 RUE LALLIER"}, {"latitude": 48.83772145898209, "longitude": 2.382217337050408, "codezip": "75012", "number": 12026, "city": "PARIS", "name": "PARC DE BERCY", "address": "61 RUE DE BERCY"}, {"latitude": 48.847296310645035, "longitude": 2.385707672217665, "codezip": "75012", "number": 12012, "city": "PARIS", "name": "REUILLY DIDEROT", "address": "71 BOULEVARD DIDEROT"}, {"latitude": 48.83899382454321, "longitude": 2.34993205295774, "codezip": "75005", "number": 5026, "city": "PARIS", "name": "MOUFFETARD SAINT MEDARD", "address": "3 RUE PASCAL"}, {"latitude": 48.861205051934334, "longitude": 2.367352328799597, "codezip": "75011", "number": 11045, "city": "PARIS", "name": "SAINT SEBASTIEN FROISSARD", "address": "12 BD DES FILLES DU CALVAIRE"}, {"latitude": 48.8794000532367, "longitude": 2.41616066183218, "codezip": "93260", "number": 32602, "city": "LES", "name": "POULMARCH (LES LILAS)", "address": "7 RUE JEAN POULMARCH"}, {"latitude": 48.88794016394694, "longitude": 2.326124420314341, "codezip": "75018", "number": 18046, "city": "PARIS", "name": "FOURCHE", "address": "12 RUE ETIENNE JOGELLE"}, {"latitude": 48.8716626619994, "longitude": 2.363933311380362, "codezip": "75010", "number": 10014, "city": "PARIS", "name": "BEAUREPAIRE", "address": "14 RUE DE MARSEILLE"}, {"latitude": 48.89849005307383, "longitude": 2.386120008210507, "codezip": "75019", "number": 19115, "city": "PARIS", "name": "PORTE DE LA VILLETTE", "address": "1 AVENUE DE LA PORTE DE LA VILLETTE"}, {"latitude": 48.832934193699835, "longitude": 2.402636749399156, "codezip": "75012", "number": 12113, "city": "PARIS", "name": "CARDINAL LAVIGERIE", "address": "4 PLACE DU CARDINAL LAVIGERIE"}, {"latitude": 48.87215737993568, "longitude": 2.391739173776302, "codezip": "75020", "number": 20042, "city": "PARIS", "name": "PYRENEES ERMITAGE", "address": "300 RUE DES PYRENEES"}, {"latitude": 48.860897797941035, "longitude": 2.29559959844703, "codezip": "75007", "number": 7023, "city": "PARIS", "name": "BOURDONNAIS TOUR EIFFEL", "address": "QUAI BRANLY"}, {"latitude": 48.8875730709534, "longitude": 2.33432733641793, "codezip": "75018", "number": 18113, "city": "PARIS", "name": "LEPIC", "address": "70  - 72 RUE LEPIC"}, {"latitude": 48.8806060535742, "longitude": 2.3978962906105, "codezip": "75019", "number": 19027, "city": "PARIS", "name": "SERRURIER", "address": "FACE 109 BOULEVARD SERURIER"}, {"latitude": 48.886526983267544, "longitude": 2.407468689386476, "codezip": "93310", "number": 33102, "city": "LE", "name": "JAURES 1 (PRE SAINT GERVAIS)", "address": "RUE GABRIEL PERI ANGLE AVENUE JAURES"}, {"latitude": 48.88195317244523, "longitude": 2.392496216649528, "codezip": "75019", "number": 19026, "city": "PARIS", "name": "DANUBE", "address": "53 RUE MIGUEL HIDALGO"}, {"latitude": 48.88880002064895, "longitude": 2.296319931841717, "codezip": "75017", "number": 17028, "city": "PARIS", "name": "PORTE DE COURCELLE", "address": "34 BOULEVARD DE REIMS"}, {"latitude": 48.88363915389933, "longitude": 2.295152067446227, "codezip": "75017", "number": 17030, "city": "PARIS", "name": "RENNEQUIN PEREIRE", "address": "143 BOULEVARD DE PEREIRE"}, {"latitude": 48.874575036780286, "longitude": 2.356796765204903, "codezip": "75010", "number": 10017, "city": "PARIS", "name": "GARE DE L'EST SAINT LAURENT", "address": "1 RUE DE LA FIDELITE"}, {"latitude": 48.84341723238589, "longitude": 2.275108332056225, "codezip": "75015", "number": 15103, "city": "PARIS", "name": "SQUARE DES C\u00c3\u2030VENNES", "address": "01 RUE CAUCHY"}, {"latitude": 48.872787680846464, "longitude": 2.309722588932229, "codezip": "75008", "number": 8033, "city": "PARIS", "name": "SAINT PHILIPPE DU ROULE", "address": "1 RUE DU CDT RIVIERE"}, {"latitude": 48.8795614522371, "longitude": 2.38896041078391, "codezip": "75019", "number": 19025, "city": "PARIS", "name": "BOTZARIS", "address": "FACE 80 RUE BOTZARIS"}, {"latitude": 48.857999643314926, "longitude": 2.350217280976349, "codezip": "75004", "number": 4018, "city": "PARIS", "name": "RIVOLI SEBASTOPOL", "address": "1 RUE SAINT BON"}, {"latitude": 48.840610399663696, "longitude": 2.258373658198948, "codezip": "75016", "number": 16118, "city": "PARIS", "name": "MICHEL ANGE", "address": "91 RUE MICHEL ANGE"}, {"latitude": 48.87000061719652, "longitude": 2.348995518049354, "codezip": "75002", "number": 2107, "city": "PARIS", "name": "THOREL", "address": "11 RUE THOREL"}, {"latitude": 48.814662495608864, "longitude": 2.36134550272134, "codezip": "", "number": 42706, "city": "94270", "name": "SALENGRO (KREMLIN BICETRE)", "address": "3 RUE ROGER SALENGRO"}, {"latitude": 48.8653941647232, "longitude": 2.397814475307571, "codezip": "75020", "number": 20025, "city": "PARIS", "name": "GAMBETTA GATINES", "address": "13 RUE DES GATINES"}, {"latitude": 48.88047087219649, "longitude": 2.237362446304566, "codezip": "92800", "number": 28003, "city": "PUTEAUX", "name": "JAURES (PUTEAUX)", "address": "152 RUE JEAN JAURES"}, {"latitude": 48.83055599940998, "longitude": 2.33378329803361, "codezip": "75014", "number": 14009, "city": "PARIS", "name": "COTY TOMBE D'ISSOIRE", "address": "49 RUE DE LA TOMBE D'ISSOIRE"}, {"latitude": 48.86946960532872, "longitude": 2.371536810663942, "codezip": "75011", "number": 11035, "city": "PARIS", "name": "GONCOURT", "address": "140 AVENUE PARMENTIER"}, {"latitude": 48.895470370399146, "longitude": 2.349865450921441, "codezip": "75018", "number": 18101, "city": "PARIS", "name": "CHAMPIONNET", "address": "32 RUE CHAMPIONNET"}, {"latitude": 48.89106, "longitude": 2.3865, "codezip": "75019", "number": 19123, "city": "PARIS", "name": "QUAI DE METZ", "address": "7 QUAI DE METZ"}, {"latitude": 48.845831419610754, "longitude": 2.301753086991115, "codezip": "75015", "number": 15011, "city": "PARIS", "name": "THEBAUD RUE DE CAMBRONNE", "address": "32 RUE CAMBRONNE"}, {"latitude": 48.83350833245743, "longitude": 2.386133168700345, "codezip": "75012", "number": 12033, "city": "PARIS", "name": "SAINT EMILION", "address": "FACE 28 RUE FRANCOIS TRUFFAUT"}, {"latitude": 48.869956681574806, "longitude": 2.326599657113696, "codezip": "75009", "number": 9034, "city": "PARIS", "name": "GODOT DE MAUROY", "address": "2 RUE GODOT DE MAUROY"}, {"latitude": 48.83788362776244, "longitude": 2.322551640018162, "codezip": "75014", "number": 14035, "city": "PARIS", "name": "MAINE GAITE", "address": "90 AVENUE DU MAINE"}, {"latitude": 48.83799829528177, "longitude": 2.240846664821182, "codezip": "92100", "number": 21009, "city": "BOULOGNE-BILLANCOURT", "name": "LECORBUSIER (BOULOGNE-BILLANCOURT)", "address": "FACE AU 1 RUE LECORBUSIER"}, {"latitude": 48.89058621555025, "longitude": 2.303457408685266, "codezip": "75017", "number": 17023, "city": "PARIS", "name": "AVENUE DE LA PORTE D'ASNI\u00c3\u02c6RES", "address": "22 AVENUE DE LA PORTE D'ASNIERES"}, {"latitude": 48.868940642855314, "longitude": 2.381282601102786, "codezip": "75020", "number": 20039, "city": "PARIS", "name": "COURONNES", "address": "44 BOULEVARD DE BELLEVILLE"}, {"latitude": 48.86585549636314, "longitude": 2.282859908979733, "codezip": "75016", "number": 16010, "city": "PARIS", "name": "BELLES FEUILLES", "address": "4 RUE DES BELLES FEUILLES"}, {"latitude": 48.87288299097443, "longitude": 2.299972932642669, "codezip": "75008", "number": 8052, "city": "PARIS", "name": "WASHINGTON", "address": "2 RUE BALZAC"}, {"latitude": 48.88185715074461, "longitude": 2.301138378176729, "codezip": "75017", "number": 17026, "city": "PARIS", "name": "WAGRAM COURCELLES", "address": "105 RUE JOUFFROY D'ABBANS"}, {"latitude": 48.81047749960048, "longitude": 2.358172896462481, "codezip": "94270", "number": 42702, "city": "LE", "name": "LECLERC (KREMLIN BICETRE)", "address": "73 RUE DU GENERAL LECLERC"}, {"latitude": 48.82774626607583, "longitude": 2.320714098089133, "codezip": "75014", "number": 14110, "city": "PARIS", "name": "ABBE CARTON", "address": "89 RUE DE L'ABBE CARTON"}, {"latitude": 48.87904931076023, "longitude": 2.354159095958248, "codezip": "75010", "number": 10152, "city": "PARIS", "name": "GARE DU NORD 2", "address": "3 BOULEVARD DE DENAIN"}, {"latitude": 48.82341630050286, "longitude": 2.322936857107952, "codezip": "75014", "number": 14107, "city": "PARIS", "name": "PORTE DE MONTROUGE 2", "address": "2 AVENUE DE LA PORTE DE MONTROUGE"}, {"latitude": 48.84817034136516, "longitude": 2.289906646457531, "codezip": "75015", "number": 15031, "city": "PARIS", "name": "THEATRE", "address": "60 RUE DU THEATRE"}, {"latitude": 48.84925926211519, "longitude": 2.391754614194301, "codezip": "75011", "number": 11010, "city": "PARIS", "name": "ST ANTOINE GONNET", "address": "1 RUE DES BOULETS"}, {"latitude": 48.85865170952645, "longitude": 2.303716580234576, "codezip": "75007", "number": 7021, "city": "PARIS", "name": "BOSQUET SAINT DOMINIQUE", "address": "37 AVENUE BOSQUET"}, {"latitude": 48.870306124369975, "longitude": 2.285074541420228, "codezip": "75016", "number": 16005, "city": "PARIS", "name": "POINCARE VICTOR HUGO", "address": "89 AVENUE RAYMOND POINCARE"}, {"latitude": 48.8234505470138, "longitude": 2.249665298288027, "codezip": "", "number": 21303, "city": "92130", "name": "ILES (ISSY LES MOULINEAUX)", "address": "ANGLE AVENUE JEAN MONNET ET BOULEVARD DES ILES"}, {"latitude": 48.83285390827691, "longitude": 2.306898478208195, "codezip": "75015", "number": 15041, "city": "PARIS", "name": "LABROUSTE", "address": "13 RUE FRANQUET"}, {"latitude": 48.828595283857425, "longitude": 2.380220606266108, "codezip": "75013", "number": 13055, "city": "PARIS", "name": "LAGROUA", "address": "18 RUE MARIE ANDREE LAGROUA"}, {"latitude": 48.833174958910085, "longitude": 2.257005867300889, "codezip": "92100", "number": 21021, "city": "BOULOGNE", "name": "PARADIS (BOULOGNE-BILLANCOURT)", "address": "FACE AU 128 RUE DES ENFANTS DU PARADIS"}, {"latitude": 48.87742034308959, "longitude": 2.366011448983217, "codezip": "75010", "number": 10025, "city": "PARIS", "name": "ECLUSES SAINT MARTIN", "address": "148 QUAI DE JEMMAPES"}, {"latitude": 48.868910127448686, "longitude": 2.392020489286297, "codezip": "75020", "number": 20121, "city": "PARIS", "name": "MENILMONTANT BOYER", "address": "27 RUE BOYER"}, {"latitude": 48.8933800500227, "longitude": 2.38499975689617, "codezip": "75019", "number": 19011, "city": "PARIS", "name": "ROUVET DAMPIERRE", "address": "2 RUE ROUVET"}, {"latitude": 48.82190796881169, "longitude": 2.363334710614756, "codezip": "75013", "number": 13038, "city": "PARIS", "name": "CHOISY POINT D'IVRY", "address": "28 AVENUE DE CHOISY"}, {"latitude": 48.86648351450895, "longitude": 2.334433421223788, "codezip": "75001", "number": 1016, "city": "PARIS", "name": "OPERA PYRAMIDES", "address": "27 RUE THERESE"}, {"latitude": 48.864065046949904, "longitude": 2.347597912716465, "codezip": "75001", "number": 1102, "city": "PARIS", "name": "FRANCAISE", "address": "6 RUE FRANCAISE"}, {"latitude": 48.852786944099584, "longitude": 2.275580584185594, "codezip": "75016", "number": 16025, "city": "PARIS", "name": "FONTAINE RAYNOUARD", "address": "4 RUE JEAN DE LA FONTAINE"}, {"latitude": 48.861720329027264, "longitude": 2.275346568555312, "codezip": "75016", "number": 16017, "city": "PARIS", "name": "RUE DE SIAM", "address": "1 BIS RUE DE SIAM"}, {"latitude": 48.87809927643587, "longitude": 2.411046298532085, "codezip": "75020", "number": 20029, "city": "PARIS", "name": "PORTE DES LILAS", "address": "57 RUE DES FRERES FLAVIEN"}, {"latitude": 48.843126205966946, "longitude": 2.222189235680779, "codezip": "92210", "number": 22101, "city": "SAINT", "name": "GARE ROUTIERE ( SAINT CLOUD)", "address": "GARE ROUTIERE  - ARRET TRAM"}, {"latitude": 48.859358523592554, "longitude": 2.389613136684456, "codezip": "75020", "number": 20131, "city": "PARIS", "name": "REPOS", "address": "41 RUE DU REPOS"}, {"latitude": 48.859150287255645, "longitude": 2.347620087684511, "codezip": "75001", "number": 1003, "city": "PARIS", "name": "RIVOLI SAINT DENIS", "address": "7 RUE SAINT DENIS"}, {"latitude": 48.89282296302349, "longitude": 2.326803489834799, "codezip": "75017", "number": 17001, "city": "PARIS", "name": "GUY MOCQUET", "address": "RUE GUY MOCQUET"}, {"latitude": 48.85946238924527, "longitude": 2.344366128446111, "codezip": "75001", "number": 1010, "city": "PARIS", "name": "PONT NEUF", "address": "10 RUE BOUCHER"}, {"latitude": 48.88818698581028, "longitude": 2.316861143151153, "codezip": "75017", "number": 17016, "city": "PARIS", "name": "BROCHANT", "address": "3 RUE BROCHANT"}, {"latitude": 48.85510629540472, "longitude": 2.373424541930557, "codezip": "75011", "number": 11002, "city": "PARIS", "name": "ROQUETTE THIERE", "address": "37 RUE DE LA ROQUETTE"}, {"latitude": 48.821138751437616, "longitude": 2.378718606608679, "codezip": "75013", "number": 13120, "city": "PARIS", "name": "VITRY DESAULT", "address": "RUE PIERRE ET JOSEPH DESAULT"}, {"latitude": 48.87042188343355, "longitude": 2.323288994791708, "codezip": "75008", "number": 8004, "city": "PARIS", "name": "MALESHERBES PASQUIER", "address": "FACE 4 BD MALESHERBES"}, {"latitude": 48.87195626635528, "longitude": 2.384981390278095, "codezip": "75020", "number": 20113, "city": "PARIS", "name": "PARC DE BELLEVILLE", "address": "30 RUE PIAT"}, {"latitude": 48.88384326568884, "longitude": 2.367110644031659, "codezip": "75010", "number": 10036, "city": "PARIS", "name": "AQUEDUC", "address": "80 RUE DE L'AQUEDUC"}, {"latitude": 48.8266572063246, "longitude": 2.405876723011083, "codezip": "94220", "number": 42207, "city": "CHARENTON", "name": "PARIS 3 (CHARENTON)", "address": "136 RUE DE PARIS"}, {"latitude": 48.841923663276546, "longitude": 2.389728979467376, "codezip": "75012", "number": 12028, "city": "PARIS", "name": "VIVALDI", "address": "42 ALLEE VIVALDI"}, {"latitude": 48.850977229793614, "longitude": 2.346076825913541, "codezip": "75005", "number": 5008, "city": "PARIS", "name": "ST GERMAIN-DANTE", "address": "9 RUE DE DANTE"}, {"latitude": 48.86614574652862, "longitude": 2.350844595287827, "codezip": "75002", "number": 2003, "city": "PARIS", "name": "ALLEE PIERRE LAZAEFF", "address": "189 RUE SAINT DENIS"}, {"latitude": 48.86343050194121, "longitude": 2.340169767017624, "codezip": "75001", "number": 1026, "city": "PARIS", "name": "COLONEL DRIANT", "address": "PLACE DU LIEUTENANT HENRI KARCHER"}, {"latitude": 48.87409248091576, "longitude": 2.389435908330615, "codezip": "75020", "number": 20112, "city": "PARIS", "name": "JOURDAIN", "address": "3 RUE DU JOURDAIN"}, {"latitude": 48.87669268743692, "longitude": 2.283457593383419, "codezip": "75016", "number": 16101, "city": "PARIS", "name": "MALAKOFF", "address": "161 AVENUE MALAKOFF"}, {"latitude": 48.8877723254283, "longitude": 2.32036786584418, "codezip": "75017", "number": 17110, "city": "PARIS", "name": "LEGENDRE", "address": "83 RUE LEGENDRE"}, {"latitude": 48.8296843300915, "longitude": 2.275342586850291, "codezip": "75015", "number": 15120, "city": "PARIS", "name": "AVIA", "address": "26 RUE DU COLONEL PIERRE AVIA"}, {"latitude": 48.874794994841274, "longitude": 2.366669436984963, "codezip": "75010", "number": 10114, "city": "PARIS", "name": "HOPITAL SAINT LOUIS", "address": "12 BIS RUE DE LA GRANGE AUX BELLES"}, {"latitude": 48.88561741628322, "longitude": 2.290781411279206, "codezip": "75017", "number": 17031, "city": "PARIS", "name": "PORTE DE CHAMPERET", "address": "PLACE DE LA PORTE DE CHAMPERET"}, {"latitude": 48.8564374096868, "longitude": 2.334797622948368, "codezip": "75006", "number": 6021, "city": "PARIS", "name": "BONAPARTE BEAUX ARTS", "address": "17 RUE DES BEAUX ARTS"}, {"latitude": 48.85615074338874, "longitude": 2.275188414671189, "codezip": "75016", "number": 16031, "city": "PARIS", "name": "BOULAINVILLIERS", "address": "51 RUE DES VIGNES"}, {"latitude": 48.87279915599243, "longitude": 2.291508179426733, "codezip": "75016", "number": 16103, "city": "PARIS", "name": "TRAKTIR", "address": "3 RUE TRAKTIR"}, {"latitude": 48.84612989154848, "longitude": 2.324240578144087, "codezip": "75006", "number": 6027, "city": "PARIS", "name": "VAUGIRARD DESGOFFE", "address": "2 RUE BLAISE DESGOFFE"}, {"latitude": 48.86729323621449, "longitude": 2.307691605650344, "codezip": "75008", "number": 8030, "city": "PARIS", "name": "MONTAIGNE", "address": "25 RUE BAYARD"}, {"latitude": 48.84996003527753, "longitude": 2.363239868721318, "codezip": "75004", "number": 4105, "city": "PARIS", "name": "MORLAND", "address": "17 BOULEVARD DU MORLAND"}, {"latitude": 48.852919679957296, "longitude": 2.410522909779111, "codezip": "75020", "number": 20044, "city": "PARIS", "name": "DAVOUT VOLGA", "address": "63 BOULEVARD DAVOUT / ANGLE 84 RUE VOLGA"}, {"latitude": 48.82772523704757, "longitude": 2.41827234236864, "codezip": "75012", "number": 12120, "city": "PARIS", "name": "CONSERVATION", "address": "ROUTE DE LA CEINTURE DU LAC DAUMESNIL"}, {"latitude": 48.86441140945903, "longitude": 2.272448647646471, "codezip": "75016", "number": 16018, "city": "PARIS", "name": "FLANDRIN", "address": "2 BOULEVARD FLANDRIN"}, {"latitude": 48.830957464145705, "longitude": 2.364107053254628, "codezip": "75013", "number": 13042, "city": "PARIS", "name": "NATIONALE BACH", "address": "150 RUE NATIONALE"}, {"latitude": 48.83648112918176, "longitude": 2.479464268709081, "codezip": "94130", "number": 41302, "city": "NOGENT", "name": "CHARLES DE GAULLE (NOGENT)", "address": "FACE AU 60 AVENUE CHARLES DE GAULLES"}, {"latitude": 48.89819702263572, "longitude": 2.293848017974069, "codezip": "92300", "number": 23004, "city": "LEVALLOIS", "name": "COUTURIER 2 (LEVALLOIS)", "address": "109 RUE  PAUL VAILLANT COUTURIER"}, {"latitude": 48.840869459702354, "longitude": 2.387564334932072, "codezip": "75012", "number": 12109, "city": "PARIS", "name": "CHAROLAIS", "address": "212 RUE DE CHARENTON"}, {"latitude": 48.87518586417745, "longitude": 2.332036313368639, "codezip": "75009", "number": 9030, "city": "PARIS", "name": "VICTOIR CHAUSSEE D ANTIN", "address": "79 RUE DE LA VICTOIRE"}, {"latitude": 48.8896779050281, "longitude": 2.33817871442611, "codezip": "75018", "number": 18017, "city": "PARIS", "name": "PECQUEUR", "address": "93 RUE CAULAINCOURT"}, {"latitude": 48.88470686398326, "longitude": 2.35358041022707, "codezip": "75018", "number": 18107, "city": "PARIS", "name": "CHARTRES", "address": "22-24 RUE DE CHARTRES"}, {"latitude": 48.844838019227154, "longitude": 2.311085506094106, "codezip": "75015", "number": 15008, "city": "PARIS", "name": "SEVRES LECOURBE", "address": "FACE 4 BOULEVARD PASTEUR"}, {"latitude": 48.85129433458901, "longitude": 2.309747615603337, "codezip": "75007", "number": 7018, "city": "PARIS", "name": "SEGUR ESTREES", "address": "23 AVENUE DE SEGUR"}, {"latitude": 48.89713005307456, "longitude": 2.396079008206681, "codezip": "75019", "number": 19044, "city": "PARIS", "name": "GRANDS MOULINS", "address": "RUE DE LA CLOTURE / ANGLE RUE DU DEBARCADERE"}, {"latitude": 48.873267841170026, "longitude": 2.359323613430623, "codezip": "75010", "number": 10012, "city": "PARIS", "name": "VINAIGRIERS", "address": "58 RUE DES VINAIGRIERS"}, {"latitude": 48.86164049957625, "longitude": 2.302250344175951, "codezip": "75007", "number": 7022, "city": "PARIS", "name": "PONT DE L'ALMA", "address": "3 AVENUE BOSQUET"}, {"latitude": 48.889485840195675, "longitude": 2.414307515111288, "codezip": "93500", "number": 35012, "city": "PANTIN", "name": "CANDALE (PANTIN)", "address": "FACE AU 12 RUE CANDALE"}, {"latitude": 48.860245194532624, "longitude": 2.344333545273837, "codezip": "75001", "number": 1009, "city": "PARIS", "name": "PONT NEUF - 14", "address": "14 RUE DU PONT NEUF"}, {"latitude": 48.83598100445596, "longitude": 2.293467119128608, "codezip": "75015", "number": 15051, "city": "PARIS", "name": "ROLLET", "address": "1 PLACE HENRI ROLLET"}, {"latitude": 48.851285276158144, "longitude": 2.412733641628248, "codezip": "75020", "number": 20107, "city": "PARIS", "name": "STADE MARYSE HILSZ", "address": "26 RUE MARYSE HILSZ"}, {"latitude": 48.883318044354574, "longitude": 2.326207175385489, "codezip": "75008", "number": 8012, "city": "PARIS", "name": "CLICHY", "address": "10 BOULEVARD DES BATIGNOLLES SUR TPC"}, {"latitude": 48.86749798940664, "longitude": 2.353660816249226, "codezip": "75003", "number": 3012, "city": "PARIS", "name": "GAITE LYRIQUE", "address": "FACE 8 RUE SALOMON DE CAUS"}, {"latitude": 48.870278078579595, "longitude": 2.351281636686514, "codezip": "75010", "number": 10105, "city": "PARIS", "name": "BONNE NOUVELLE PROP2", "address": "2 RUE DE MAZAGRAN"}, {"latitude": 48.872795019872605, "longitude": 2.328315742616178, "codezip": "75009", "number": 9033, "city": "PARIS", "name": "HAVRE CAUMARTIN", "address": "FACE 45 RUE CAUMARTIN"}, {"latitude": 48.820323646126774, "longitude": 2.32300304092451, "codezip": "75014", "number": 14116, "city": "PARIS", "name": "ROMAIN ROLLAND", "address": "49-51 BD ROMAIN ROLLAND"}, {"latitude": 48.84264777870052, "longitude": 2.386164927813738, "codezip": "75012", "number": 12027, "city": "PARIS", "name": "MONTGALLET CHARENTON", "address": "2 RUE MONTGALLET"}, {"latitude": 48.82902666973469, "longitude": 2.361069024089417, "codezip": "75013", "number": 13034, "city": "PARIS", "name": "EDISON", "address": "54 AVENUE EDISON"}, {"latitude": 48.87939826447722, "longitude": 2.333709173337285, "codezip": "75009", "number": 9026, "city": "PARIS", "name": "BRUYERE PIGALLE", "address": "28 RUE J.B.PIGALLE"}, {"latitude": 48.885437730894544, "longitude": 2.316473835914172, "codezip": "75017", "number": 17013, "city": "PARIS", "name": "LEGENDRE", "address": "62 RUE LEGENDRE"}, {"latitude": 48.85550131286469, "longitude": 2.422055733613231, "codezip": "93100", "number": 31004, "city": "MONTREUIL", "name": "PARIS 2 (MONTREUIL)", "address": "175/179 RUE DE PARIS"}, {"latitude": 48.87219025140095, "longitude": 2.329423494000903, "codezip": "75009", "number": 9106, "city": "PARIS", "name": "AUBER", "address": "3 RUE BOUDREAU"}, {"latitude": 48.85100487466529, "longitude": 2.272469482915694, "codezip": "75016", "number": 16028, "city": "PARIS", "name": "MILLET - JEAN DE LA FONTAINE", "address": "12 RUE FRANCOIS MILLET"}, {"latitude": 48.896328348515986, "longitude": 2.333390423834684, "codezip": "75018", "number": 18034, "city": "PARIS", "name": "LEIBNITZ", "address": "50 RUE LEIBNITZ"}, {"latitude": 48.84375698130157, "longitude": 2.339306721981416, "codezip": "75005", "number": 5010, "city": "PARIS", "name": "SAINT MICHEL HENRI BARBUSSE", "address": "1 RUE HENRI BARBUSSE"}, {"latitude": 48.84618800146489, "longitude": 2.37040616152132, "codezip": "75012", "number": 12102, "city": "PARIS", "name": "DIDEROT BERCY", "address": "224 RUE DE BERCY"}, {"latitude": 48.84969041137042, "longitude": 2.352970183602024, "codezip": "75005", "number": 5019, "city": "PARIS", "name": "POISSY", "address": "8-10 RUE DE POISSY"}, {"latitude": 48.84509712653168, "longitude": 2.265724147895062, "codezip": "75016", "number": 16038, "city": "PARIS", "name": "RUE MOLITOR", "address": "RUE MOLITOR"}, {"latitude": 48.87334627510507, "longitude": 2.337980867701675, "codezip": "75009", "number": 9022, "city": "PARIS", "name": "LAFITTE ROSSINI", "address": "19 RUE ROSSINI"}, {"latitude": 48.86530798423503, "longitude": 2.376019912019568, "codezip": "75011", "number": 11030, "city": "PARIS", "name": "SAINT MAUR OBERKAMPF", "address": "80 RUE OBERKAMPF"}, {"latitude": 48.863757931035046, "longitude": 2.267504683574771, "codezip": "75016", "number": 16130, "city": "PARIS", "name": "BOIS DE BOULOGNE / PORTE DE LA MUETTE 2", "address": "AVENUE LOUIS BARTHOU / PLACE DE LA COLOMBIE"}, {"latitude": 48.84696126017499, "longitude": 2.452237396596088, "codezip": "94300", "number": 43009, "city": "VINCENNES", "name": "MURS DU PARC (VINCENNES)", "address": "AVENUE DES MURS DU PARC"}, {"latitude": 48.84040040365445, "longitude": 2.313117867297474, "codezip": "75015", "number": 15113, "city": "PARIS", "name": "FALGUIERE ARSONVAL", "address": "2 RUE D'ARSONVAL"}, {"latitude": 48.857091635218225, "longitude": 2.341747995157864, "codezip": "75001", "number": 1001, "city": "PARIS", "name": "ILE DE LA CITE PONT NEUF", "address": "41 QUAI DE L'HORLOGE"}, {"latitude": 48.88412710804656, "longitude": 2.328807098192234, "codezip": "75018", "number": 18044, "city": "PARIS", "name": "CLICHY", "address": "132 BOULEVARD DE CLICHY"}, {"latitude": 48.8936146524531, "longitude": 2.277618727223195, "codezip": "92300", "number": 23001, "city": "LEVALLOIS", "name": "COUTURIER 1 (LEVALLOIS)", "address": "2 RUE PAUL VAILLANT COUTURIER"}, {"latitude": 48.877532084130166, "longitude": 2.294512536052928, "codezip": "75017", "number": 17046, "city": "PARIS", "name": "MAC MAHON", "address": "18 AVENUE MARC MAHON"}, {"latitude": 48.8887860708258, "longitude": 2.39268612206715, "codezip": "75019", "number": 19018, "city": "PARIS", "name": "CIT\u00c3\u2030 DE LA MUSIQUE", "address": "FACE 210 AVENUE JEAN JAURES"}, {"latitude": 48.816980981259285, "longitude": 2.332609687921881, "codezip": "75014", "number": 14126, "city": "PARIS", "name": "VAILLANT COUTURIER", "address": "155 AVENUE PAUL VAILLANT COUTURIER"}, {"latitude": 48.84842761367387, "longitude": 2.265253821160005, "codezip": "75016", "number": 16033, "city": "PARIS", "name": "MICHEL ANGE AUTEUIL", "address": "85 RUE JEAN DE LA FONTAINE"}, {"latitude": 48.8337, "longitude": 2.3215, "codezip": "75014", "number": 14031, "city": "PARIS", "name": "DIDOT CHATEAU", "address": "13 RUE DIDOT"}, {"latitude": 48.851359912581465, "longitude": 2.277697269448623, "codezip": "75016", "number": 16029, "city": "PARIS", "name": "MAISON DE RADIO FRANCE", "address": "1 RUE GROS"}, {"latitude": 48.8842894403224, "longitude": 2.305497444260642, "codezip": "75017", "number": 17021, "city": "PARIS", "name": "WAGRAM (17EME ARR.)", "address": "RUE JOUFFROY D'ABBANS"}, {"latitude": 48.881472498481, "longitude": 2.37026248225988, "codezip": "75019", "number": 19116, "city": "PARIS", "name": "JAURES VILLETTE", "address": "180 BOULEVARD DE LA VILLETTE"}, {"latitude": 48.91157045930829, "longitude": 2.333910127129224, "codezip": "93400", "number": 34010, "city": "SAINT", "name": "DIDEROT 2 (SAINT OUEN)", "address": "FACE 61-63 RUE DIDEROT"}, {"latitude": 48.883026659159576, "longitude": 2.260096983931875, "codezip": "92200", "number": 22006, "city": "NEUILLY", "name": "PIERRET (NEUILLY)", "address": "33 RUE PIERRET"}, {"latitude": 48.886335082615275, "longitude": 2.38246120055766, "codezip": "75019", "number": 19014, "city": "PARIS", "name": "LORRAINE", "address": "28 RUE DE LORRAINE"}, {"latitude": 48.839635080561905, "longitude": 2.300654459291639, "codezip": "75015", "number": 15038, "city": "PARIS", "name": "PLACE ADOLPHE CHERIOUX", "address": "18 PLACE ADOLPHE CHERIOUX"}, {"latitude": 48.85160266522164, "longitude": 2.398403047037931, "codezip": "75011", "number": 20043, "city": "PARIS", "name": "CHARONNE AVRON", "address": "48 BOULEVARD DE CHARONNE"}, {"latitude": 48.87068263384462, "longitude": 2.398959602331646, "codezip": "75020", "number": 20036, "city": "PARIS", "name": "MENILMONTANT - PELLEPORT", "address": "164 RUE DE MENILMONTANT"}, {"latitude": 48.815529633678416, "longitude": 2.317029863731327, "codezip": "92120", "number": 21207, "city": "MONTROUGE", "name": "VERDIER (MONTROUGE)", "address": "AVENUE VERDIER ANGLE AVENUE DE LA REPUBLIQUE"}, {"latitude": 48.852804604940296, "longitude": 2.293077029857222, "codezip": "75015", "number": 15067, "city": "PARIS", "name": "DESAIX", "address": "23 RUE DESAIX"}, {"latitude": 48.885257971348466, "longitude": 2.334617735640665, "codezip": "75018", "number": 18114, "city": "PARIS", "name": "LEPIC VERON", "address": "35 RUE VERON"}, {"latitude": 48.87775323400056, "longitude": 2.327339290714228, "codezip": "75009", "number": 9035, "city": "PARIS", "name": "PLACE DE BUDAPEST", "address": "38 RUE DE LONDRES"}, {"latitude": 48.868660481539266, "longitude": 2.35018588824494, "codezip": "75002", "number": 2016, "city": "PARIS", "name": "ABOUKIR", "address": "108 RUE D'ABOUKIR"}, {"latitude": 48.847184641150214, "longitude": 2.353398379689353, "codezip": "75005", "number": 5021, "city": "PARIS", "name": "JUSSIEU", "address": "41 RUE JUSSIEU"}, {"latitude": 48.88469160640549, "longitude": 2.344139285947184, "codezip": "75018", "number": 18006, "city": "PARIS", "name": "MARCHE ST-PIERRE", "address": "PLACE SAINT PIERRE"}, {"latitude": 48.855965856210226, "longitude": 2.356381154873061, "codezip": "75004", "number": 4015, "city": "PARIS", "name": "MAIRIE DU 4 EME", "address": "25 RUE DU PONT LOUIS PHILIPPE"}, {"latitude": 48.872747269036246, "longitude": 2.408203454302088, "codezip": "75020", "number": 20117, "city": "PARIS", "name": "SAINT FARGEAU MORTIER", "address": "72 RUE SAINT-FARGEAU"}, {"latitude": 48.892139409307205, "longitude": 2.409107737701187, "codezip": "93500", "number": 35009, "city": "PANTIN", "name": "LOLIVE 1 (PANTIN)", "address": "104 AVENUE LOLIVE"}, {"latitude": 48.884101293163106, "longitude": 2.322206025347343, "codezip": "75017", "number": 17012, "city": "PARIS", "name": "MAIRIE DU 17EME", "address": "FACE 16 RUE DES BATIGNOLLES"}, {"latitude": 48.88679881177337, "longitude": 2.374719516795626, "codezip": "75019", "number": 19029, "city": "PARIS", "name": "SEINE FLANDRE", "address": "51 QUAI DE LA SEINE"}, {"latitude": 48.870893425955984, "longitude": 2.353521565011111, "codezip": "75010", "number": 10004, "city": "PARIS", "name": "METZ", "address": "7 RUE DE METZ"}, {"latitude": 48.87077575727228, "longitude": 2.343163334385358, "codezip": "75002", "number": 2010, "city": "PARIS", "name": "BOULEVARD MONTMARTRE", "address": "21 RUE D'UZES"}, {"latitude": 48.88235325984544, "longitude": 2.333263372748175, "codezip": "75009", "number": 9027, "city": "PARIS", "name": "FONTAINE DOUAI", "address": "24 RUE DE DOUAI"}, {"latitude": 48.86442014173202, "longitude": 2.366136374249966, "codezip": "75011", "number": 11040, "city": "PARIS", "name": "TEMPLE JEAN PIERRE TIMBAUD", "address": "18 BD DU TEMPLE"}, {"latitude": 48.8456381388333, "longitude": 2.23701147134366, "codezip": "", "number": 21003, "city": "92100", "name": "JAURES 1 (BOULOGNE-BILLANCOURT)", "address": "2 BOULEVARD JEAN JAURES"}, {"latitude": 48.82690019971573, "longitude": 2.365177603483576, "codezip": "75013", "number": 13036, "city": "PARIS", "name": "TOLBIAC NATIONALE", "address": "86 RUE TOLBIAC"}, {"latitude": 48.81414053750237, "longitude": 2.390909368067142, "codezip": "94200", "number": 42014, "city": "IVRY", "name": "CACHIN (IVRY)", "address": "PLACE MARCEL CACHIN"}, {"latitude": 48.876419813641114, "longitude": 2.358630064544601, "codezip": "75010", "number": 906, "city": "PARIS", "name": "GARE DE L'EST", "address": "GARDE DE L'EST-PARVIS GARE DE L'EST"}, {"latitude": 48.83932502506044, "longitude": 2.320954125728877, "codezip": "75014", "number": 14117, "city": "PARIS", "name": "MOUCHOTTE", "address": "5 RUE DU COMMANDANT RENE MOUCHOTTE"}, {"latitude": 48.88199720999019, "longitude": 2.363625214552995, "codezip": "75010", "number": 10031, "city": "PARIS", "name": "AQUEDUC", "address": "48 RUE LOUIS BLANC"}, {"latitude": 48.82941013459557, "longitude": 2.375934558013933, "codezip": "75013", "number": 13053, "city": "PARIS", "name": "CHEVALERET TOLBIAC", "address": "56 RUE CHEVALERET"}, {"latitude": 48.876719895109, "longitude": 2.344393021853951, "codezip": "75009", "number": 9010, "city": "PARIS", "name": "CADET", "address": "1/3 RUE DE ROCHECHOUART"}, {"latitude": 48.857940092963034, "longitude": 2.347010058114489, "codezip": "75001", "number": 1002, "city": "PARIS", "name": "PLACE DU CHATELET", "address": "14 AVENUE VICTORIA"}, {"latitude": 48.84026772485455, "longitude": 2.379519527723101, "codezip": "75012", "number": 12025, "city": "PARIS", "name": "BERCY", "address": "FACE 14 PL. DU BATAILLON DU PACIFIQUE"}, {"latitude": 48.86598324102434, "longitude": 2.275725635731198, "codezip": "75016", "number": 16107, "city": "PARIS", "name": "GODARD", "address": "2 RUE BENJAMIN GODARD"}, {"latitude": 48.82434285685922, "longitude": 2.376060091685724, "codezip": "75013", "number": 13118, "city": "PARIS", "name": "PATAY REGNAULT", "address": "36-38 RUE REGNAULT"}, {"latitude": 48.85535513998681, "longitude": 2.399728589689724, "codezip": "75020", "number": 20013, "city": "PARIS", "name": "PLACE DE LA REUNION", "address": "106 RUE ALEXANDRE DUMAS"}, {"latitude": 48.883498081948446, "longitude": 2.28201558962579, "codezip": "75017", "number": 17105, "city": "PARIS", "name": "PALADINES", "address": "18 BOULEVARD D'AURELLE DE PALADINES"}, {"latitude": 48.88023362761321, "longitude": 2.285380679473588, "codezip": "75017", "number": 17043, "city": "PARIS", "name": "PLACE GENERAL KOENIG", "address": "10 RUE BELIDOR"}, {"latitude": 48.82570981702807, "longitude": 2.321849987344236, "codezip": "75014", "number": 14037, "city": "PARIS", "name": "JEAN MOULIN", "address": "56 AVENUE JEAN MOULIN"}, {"latitude": 48.86909008833763, "longitude": 2.324429630496505, "codezip": "75008", "number": 8005, "city": "PARIS", "name": "MADELEINE", "address": "04 PLACE DE LA MADELEINE"}, {"latitude": 48.84623928170344, "longitude": 2.341324916011569, "codezip": "75005", "number": 5003, "city": "PARIS", "name": "GAY LUSSAC LE GOFF", "address": "9 RUE LE GOFF"}, {"latitude": 48.868, "longitude": 2.36498, "codezip": "75011", "number": 11037, "city": "PARIS", "name": "FAUBOURG DU TEMPLE PLACE DE LA REPUBLIQUE", "address": "2 RUE DU FAUBOURG DU TEMPLE"}, {"latitude": 48.88384931844148, "longitude": 2.360053088985318, "codezip": "75010", "number": 10034, "city": "PARIS", "name": "CHAPELLE LOUIS BLANC", "address": "68 RUE LOUIS BLANC"}, {"latitude": 48.811749821310805, "longitude": 2.303169887627808, "codezip": "92120", "number": 21211, "city": "MONTROUGE", "name": "MARNE (MONTROUGE)", "address": "100 AVENUE DE LA MARNE"}, {"latitude": 48.87518496111192, "longitude": 2.284219432060596, "codezip": "75016", "number": 16002, "city": "PARIS", "name": "PERGOLESE", "address": "FACE 25 RUE PERGOLESE"}, {"latitude": 48.83199636916928, "longitude": 2.354809472700658, "codezip": "75013", "number": 13008, "city": "PARIS", "name": "ITALIE ROSALIE", "address": "FACE 2 PLACE D'ITALIE"}, {"latitude": 48.90550311453459, "longitude": 2.310820381708937, "codezip": "92110", "number": 21110, "city": "CLICHY", "name": "VILLENEUVE (CLICHY)", "address": "FACE 51 RUE VILLENEUVE"}, {"latitude": 48.88287775178599, "longitude": 2.287667370814871, "codezip": "75017", "number": 17041, "city": "PARIS", "name": "PORTE DE VILLIERS", "address": "51 RUE GUERSANT"}, {"latitude": 48.87355533448877, "longitude": 2.303288666125152, "codezip": "75008", "number": 8102, "city": "PARIS", "name": "LAMENAIS WASHINGTON", "address": "1 RUE LAMENNAIS"}, {"latitude": 48.8621350384716, "longitude": 2.377229858571335, "codezip": "75011", "number": 11027, "city": "PARIS", "name": "SAINT AMBROISE PARMENTIER", "address": "17 RUE SAINT AMBROISE"}, {"latitude": 48.8365662244334, "longitude": 2.312707121097412, "codezip": "75015", "number": 15027, "city": "PARIS", "name": "GIDE", "address": "4 RUE ANDRE GIDE"}, {"latitude": 48.86346964122224, "longitude": 2.409670100215905, "codezip": "75020", "number": 20045, "city": "PARIS", "name": "LOUIS GANNE", "address": "3-5 RUE LOUIS GANNE"}, {"latitude": 48.86849994171273, "longitude": 2.359970049607283, "codezip": "75010", "number": 10001, "city": "PARIS", "name": "JOHANN STRAUSS", "address": "FACE 50 RUE RENE BOULANGER"}, {"latitude": 48.844806421735925, "longitude": 2.297572005982148, "codezip": "75015", "number": 15021, "city": "PARIS", "name": "CROIX NIVERT", "address": "DEV 2 RUE JOSEPH LOUVILLE"}, {"latitude": 48.87582185503067, "longitude": 2.347303230302456, "codezip": "75009", "number": 9113, "city": "PARIS", "name": "BLEUE", "address": "5 RUE BLEUE"}, {"latitude": 48.85045800918843, "longitude": 2.352454275492188, "codezip": "75005", "number": 5107, "city": "PARIS", "name": "PONTOISE", "address": "1 RUE DE PONTOISE"}, {"latitude": 48.879813218337546, "longitude": 2.287956452342442, "codezip": "75017", "number": 17040, "city": "PARIS", "name": "TERNES PEREIRE", "address": "227 BOULEVARD PEREIRE SUR TPC"}, {"latitude": 48.850125232056115, "longitude": 2.455529172111142, "codezip": "94120", "number": 41203, "city": "FONTENAY", "name": "STALINGRAD (FONTENAY SOUS BOIS)", "address": "14 AVENUE STALINGRAD"}, {"latitude": 48.84757532146731, "longitude": 2.30286310050181, "codezip": "75015", "number": 15010, "city": "PARIS", "name": "CAMBRONNE", "address": "FACE 3 BD GARIBALDI"}, {"latitude": 48.87154221364212, "longitude": 2.345836455597928, "codezip": "75009", "number": 9012, "city": "PARIS", "name": "ROUGEMONT", "address": "3-5 RUE ROUGEMONT"}, {"latitude": 48.870508937203915, "longitude": 2.334054461939329, "codezip": "75002", "number": 2015, "city": "PARIS", "name": "OPERA - CAPUCINES", "address": "25 RUE LOUIS LE GRAND"}, {"latitude": 48.914188312399, "longitude": 2.33208283587176, "codezip": "93400", "number": 34011, "city": "SAINT", "name": "DHALENNE (SAINT OUEN)", "address": "FACE AU 61 RUE ALBERT DHALENNE"}, {"latitude": 48.86302549226599, "longitude": 2.415622204179507, "codezip": "93170", "number": 31706, "city": "BAGNOLET", "name": "CHATEAU (BAGNOLET)", "address": "RUE DU CHATEAU"}, {"latitude": 48.849215862624035, "longitude": 2.370503423869599, "codezip": "75012", "number": 12002, "city": "PARIS", "name": "LACUEE", "address": "17 RUE LACUEE"}, {"latitude": 48.84717561492764, "longitude": 2.307052147596786, "codezip": "75015", "number": 15009, "city": "PARIS", "name": "SUFFREN", "address": "140 AVENUE DE SUFFREN"}, {"latitude": 48.84030274499962, "longitude": 2.394630398715453, "codezip": "75012", "number": 12036, "city": "PARIS", "name": "REUILLY", "address": "116 RUE DE REUILLY"}, {"latitude": 48.838431825491696, "longitude": 2.340794666870659, "codezip": "75014", "number": 14004, "city": "PARIS", "name": "PORT ROYAL COCHIN", "address": "111 BD PORT ROYAL"}, {"latitude": 48.866843803252216, "longitude": 2.315779713410026, "codezip": "75008", "number": 8001, "city": "PARIS", "name": "PETIT PALAIS", "address": "AV. DUTUIT"}, {"latitude": 48.86863640502551, "longitude": 2.355591592778568, "codezip": "75003", "number": 3101, "city": "PARIS", "name": "PORTE SAINT MARTIN", "address": "62 RUE MESLAY"}, {"latitude": 48.87099998982137, "longitude": 2.361141436574885, "codezip": "75010", "number": 10010, "city": "PARIS", "name": "JACQUES BONSERGENT", "address": "FACE 8 PLACE JACQUES BONSERGENT"}, {"latitude": 48.828156251574946, "longitude": 2.358513532903332, "codezip": "75013", "number": 13122, "city": "PARIS", "name": "PARC DE CHOISY", "address": "FACE 153 AVENUE DE CHOISY"}, {"latitude": 48.89453090447961, "longitude": 2.341541339092219, "codezip": "75018", "number": 18029, "city": "PARIS", "name": "POTEAU", "address": "1 RUE EMILE BLEMONT"}, {"latitude": 48.834953979664654, "longitude": 2.241688247102405, "codezip": "92100", "number": 21005, "city": "BOULOGNE-BILLANCOURT", "name": "MORIZET (BOULOGNE-BILLANCOURT)", "address": "20 AVENUE ANDRE MORIZET"}, {"latitude": 48.83476837934194, "longitude": 2.284142297394666, "codezip": "75015", "number": 15061, "city": "PARIS", "name": "DESNOUETTES", "address": "12 SQUARE DESNOUETTES"}, {"latitude": 48.82650293311012, "longitude": 2.309274799827166, "codezip": "75014", "number": 14122, "city": "PARIS", "name": "BRUNE", "address": "1 RUE DU COLONEL MONTEIL"}, {"latitude": 48.892925653432606, "longitude": 2.344517921162641, "codezip": "75018", "number": 18025, "city": "PARIS", "name": "MAIRIE DU 18 EME", "address": "81 RUE MONT-CENIS"}, {"latitude": 48.85123038028847, "longitude": 2.325070038738617, "codezip": "75007", "number": 7003, "city": "PARIS", "name": "BON MARCHE", "address": "RUE VELPEAU"}, {"latitude": 48.87137987425661, "longitude": 2.369896383666685, "codezip": "75010", "number": 10113, "city": "PARIS", "name": "PARMENTIER LOUVEL-TESSIER", "address": "151 AVENUE PARMENTIER"}, {"latitude": 48.875670112481366, "longitude": 2.359509937592322, "codezip": "75010", "number": 10161, "city": "PARIS", "name": "GARE DE L'EST", "address": "FACE 129 RUE DU FBG SAINT MARTIN"}, {"latitude": 48.83667579640627, "longitude": 2.391795855555629, "codezip": "75012", "number": 12030, "city": "PARIS", "name": "WATTIGNIES", "address": "245 RUE DE CHARENTON"}, {"latitude": 48.85780291711202, "longitude": 2.277500546942199, "codezip": "75016", "number": 16043, "city": "PARIS", "name": "PLACE DE PASSY", "address": "2 PLACE DE PASSY"}, {"latitude": 48.84423193255657, "longitude": 2.439209537709179, "codezip": "94300", "number": 12123, "city": "VINCENNES", "name": "CHATEAU DE VINCENNES", "address": "COURS DES MARECHAUX"}, {"latitude": 48.899268863316706, "longitude": 2.342963477309899, "codezip": "75018", "number": 18122, "city": "PARIS", "name": "BINET", "address": "5 RUE BINET"}, {"latitude": 48.86288, "longitude": 2.30652, "codezip": "75007", "number": 908, "city": "PARIS", "name": "PORT DU GROS CAILLOU (STATION MOBILE)", "address": "QUAI D'ORSAY  - PORT DU GROS CAILLOU"}, {"latitude": 48.824407767562604, "longitude": 2.418455004234756, "codezip": "75012", "number": 12126, "city": "PARIS", "name": "AVENUE DE GRAVELLE", "address": "FACE 71 AVENUE DE GRAVELLE"}, {"latitude": 48.833190318752514, "longitude": 2.336933391248149, "codezip": "75014", "number": 14006, "city": "PARIS", "name": "SAINT JACQUES TOMBE ISSOIRE", "address": "46 BOULEVARD SAINT JACQUES"}, {"latitude": 48.888185641932566, "longitude": 2.310120536549759, "codezip": "75017", "number": 17117, "city": "PARIS", "name": "PEREIRE SAUSSURE", "address": "2 BIS BOULEVARD PEREIRE"}, {"latitude": 48.85525468775053, "longitude": 2.337539334060287, "codezip": "75006", "number": 6013, "city": "PARIS", "name": "JACQUES CALLOT", "address": "1 RUE JACQUES CALLOT"}, {"latitude": 48.873486169349846, "longitude": 2.320281234210629, "codezip": "75008", "number": 8015, "city": "PARIS", "name": "ROQUEPINE", "address": "4 RUE ROQUEPINE"}, {"latitude": 48.84163270861767, "longitude": 2.348552018116996, "codezip": "75005", "number": 5014, "city": "PARIS", "name": "CALVIN", "address": "8 RUE JEAN CALVIN"}, {"latitude": 48.8805744614225, "longitude": 2.376853000562019, "codezip": "75019", "number": 19119, "city": "PARIS", "name": "BOURET PAILLERON", "address": "20 RUE EDOUARD PAILLERON"},